[
   {
      "index": 0,
      "country": "United Arab Emirates",
      "city": "Abu Dhabi",
      "lat": 24.453884,
      "lng": 54.377342,
      "deans": [
         "Abdul Qureshi"
      ],
      "social_media": {
         "facebook": "https://www.facebook.com/groups/513514075763914"
      }
   },
   {
      "index": 1,
      "country": "Nigeria",
      "city": "Abuja",
      "lat": 9.076479,
      "lng": 7.398574,
      "deans": [
         "Adewale"
      ],
      "social_media": {
         "facebook": "https://www.facebook.com/groups/1026366924190543"
      }
   },
   {
      "index": 2,
      "country": "Ghana",
      "city": "Accra",
      "lat": 5.603717,
      "lng": -0.1869644,
      "deans": [
         "Angela Munyao"
      ],
      "social_media": {
         "facebook": "https://www.facebook.com/groups/522325514885355"
      }
   },
   {
      "index": 3,
      "country": "Spain",
      "city": "Alicante",
      "lat": 38.345997,
      "lng": -0.4906855,
      "deans": [
         "Gonzalo Molina Gallego"
      ],
      "social_media": {
         "facebook": "https://www.facebook.com/groups/alicanteschool..."
      }
   },
   {
      "index": 4,
      "country": "United States of America",
      "city": "Allentown",
      "lat": 40.602295,
      "lng": -75.47141,
      "deans": [
         "Bryan James McNally"
      ],
      "social_media": {
         "facebook": "https://www.facebook.com/groups/allentownschoolofai",
         "meetup": "https://www.meetup.com/Allentown-School-of-AI/"
      }
   },
   {
      "index": 5,
      "country": "United States of America",
      "city": "Amherst, Ma",
      "lat": 42.373222,
      "lng": -72.51985,
      "deans": [
         "Sarim Ahmed"
      ],
      "social_media": {
         "facebook": "https://www.facebook.com/groups/877536242437678"
      }
   },
   {
      "index": 6,
      "country": "Jordan",
      "city": "Amman",
      "lat": 31.945366,
      "lng": 35.92837,
      "deans": [
         "Ahmad Hammoudeh",
         "Mouaz al Hosni"
      ],
      "social_media": {
         "facebook": "https://www.facebook.com/groups/223021981718764"
      }
   },
   {
      "index": 7,
      "country": "Belgium",
      "city": "Antwerp",
      "lat": 51.219448,
      "lng": 4.4024644,
      "deans": [
         "Stig Bosmans"
      ],
      "social_media": {
         "meetup": "https://www.meetup.com/Antwerp-School-of-AI/"
      }
   },
   {
      "index": 8,
      "country": "Jordan",
      "city": "Irbid",
      "lat": 32.556957,
      "lng": 35.847908,
      "deans": [
         "Ihab Geno",
         "Dia Abujaber"
      ],
      "social_media": {
         "facebook": "https://www.facebook.com/groups/RAIJO/"
      }
   },
   {
      "index": 9,
      "country": "Bangladesh",
      "city": "Dhaka",
      "lat": 23.810331,
      "lng": 90.41252,
      "deans": [
         "Ribeirão Preto",
         "MD AL-AMIN",
         "Ashfaque Ahmed Khan"
      ],
      "social_media": {
         "facebook": "https://www.facebook.com/groups/1074498706031313"
      }
   },
   {
      "index": 10,
      "country": "United States of America",
      "city": "Appleton",
      "lat": 44.261932,
      "lng": -88.41538,
      "deans": [
         "Matthew David"
      ],
      "social_media": {
         "facebook": "https://www.facebook.com/groups/235244053783689"
      }
   },
   {
      "index": 11,
      "country": "Brazil",
      "city": "Aracaju",
      "lat": -10.947247,
      "lng": -37.073082,
      "deans": [
         "Angelo Garangau Menezes"
      ],
      "social_media": {
         "facebook": "https://www.facebook.com/groups/ajuschoolofai"
      }
   },
   {
      "index": 12,
      "country": "Bolivia (Plurinational State of)",
      "city": "La Paz",
      "lat": -16.512682,
      "lng": -68.1213,
      "deans": [
         "Rafael Villca Poggian"
      ],
      "social_media": {
         "facebook": "https://www.facebook.com/groups/1204328906374103"
      }
   },
   {
      "index": 13,
      "country": "Brazil",
      "city": null,
      "lat": -14.235004,
      "lng": -51.92528,
      "deans": [
         "SILAS SANTIAGO LOPES PEREIRA"
      ],
      "social_media": {
         "facebook": "https://www.facebook.com/groups/243303929846559"
      }
   },
   {
      "index": 14,
      "country": "Peru",
      "city": "Arequipa",
      "lat": -16.409048,
      "lng": -71.53745,
      "deans": [
         "Jordan Raji Lazo Cahua"
      ],
      "social_media": {
         "facebook": "https://www.facebook.com/groups/1847443272014227"
      }
   },
   {
      "index": 15,
      "country": "Israel",
      "city": "Ashdod",
      "lat": 31.80438,
      "lng": 34.655315,
      "deans": [
         "David Loving"
      ],
      "social_media": {
         "meetup": "https://www.meetup.com/The-School-of-AI-Ashdod/"
      }
   },
   {
      "index": 16,
      "country": "Brazil",
      "city": "Curitiba",
      "lat": -25.480877,
      "lng": -49.304424,
      "deans": [
         "Glauter Moulin Coelho"
      ],
      "social_media": {
         "facebook": "https://www.facebook.com/groups/2266455450243301"
      }
   },
   {
      "index": 17,
      "country": "Ghana",
      "city": null,
      "lat": 7.946527,
      "lng": -1.023194,
      "deans": [
         "Gbètondji Dovonon"
      ],
      "social_media": {
         "facebook": "https://www.facebook.com/groups/261533141350121"
      }
   },
   {
      "index": 18,
      "country": "Brazil",
      "city": "Goiânia",
      "lat": -16.686897,
      "lng": -49.264812,
      "deans": [
         "Kleyson Rios"
      ],
      "social_media": {
         "facebook": "https://www.facebook.com/groups/2637189659838999/"
      }
   },
   {
      "index": 19,
      "country": "United States of America",
      "city": "Austin",
      "lat": 30.267153,
      "lng": -97.74306,
      "deans": [
         "Bobby Sawey"
      ],
      "social_media": {
         "facebook": "https://www.facebook.com/groups/304437056976678"
      }
   },
   {
      "index": 20,
      "country": "Thailand",
      "city": "Bangkok",
      "lat": 13.7563305,
      "lng": 100.50176,
      "deans": [
         "Charin Polpanumas"
      ],
      "social_media": {
         "facebook": "https://www.facebook.com/groups/755699171268759",
         "meetup": "https://www.meetup.com/Bangkok-School-of-AI/"
      }
   },
   {
      "index": 21,
      "country": "Thailand",
      "city": "Bangkok",
      "lat": 13.7563305,
      "lng": 100.50176,
      "deans": [
         "Naman Narayan"
      ],
      "social_media": null
   },
   {
      "index": 22,
      "country": "Spain",
      "city": "Barcelona",
      "lat": 41.385063,
      "lng": 2.1734035,
      "deans": [
         "Juan Sensio"
      ],
      "social_media": {
         "meetup": "https://www.meetup.com/es-ES/Barcelona-School-of-AI/?_locale=es-ES"
      }
   },
   {
      "index": 23,
      "country": "United Kingdom of Great Britain and Northern Ireland",
      "city": "Bath And South West England",
      "lat": 51.381065,
      "lng": -2.3590167,
      "deans": [
         "Tristan Hosken"
      ],
      "social_media": {
         "facebook": "https://www.facebook.com/groups/1193070210849551"
      }
   },
   {
      "index": 24,
      "country": "Montenegro",
      "city": "Beijing",
      "lat": 39.9042,
      "lng": 116.407394,
      "deans": [
         "ShizheDiao"
      ],
      "social_media": {
         "facebook": "https://www.facebook.com/groups/17882716279534..."
      }
   },
   {
      "index": 25,
      "country": "Lebanon",
      "city": "Beirut",
      "lat": 33.89379,
      "lng": 35.501778,
      "deans": [
         "Hassan Daoud"
      ],
      "social_media": null
   },
   {
      "index": 26,
      "country": "Brazil",
      "city": "Belém",
      "lat": -1.4557292,
      "lng": -48.490177,
      "deans": [
         "Arthur Gonsales da Silva",
         "."
      ],
      "social_media": {
         "facebook": "https://www.facebook.com/groups/1903613986608985"
      }
   },
   {
      "index": 27,
      "country": "United States of America",
      "city": "Bellevue",
      "lat": 47.61015,
      "lng": -122.201515,
      "deans": [
         "Sathish K Ravichandran",
         "I"
      ],
      "social_media": {
         "facebook": "https://www.https://www.facebook.com/groups/1882069262102074/",
         "meetup": "https://www.https://www.meetup.com/BellevueAISchool/"
      }
   },
   {
      "index": 28,
      "country": "Brazil",
      "city": "Recife",
      "lat": -8.05224,
      "lng": -34.928608,
      "deans": [
         "Mávio Eduardo Azevedo Bispo",
         "b"
      ],
      "social_media": {
         "facebook": "https://www.facebook.com/groups/322032781869481"
      }
   },
   {
      "index": 29,
      "country": "Brazil",
      "city": "Belo Horizonte",
      "lat": -19.9173,
      "lng": -43.93456,
      "deans": [
         "Bruno Gomes",
         "."
      ],
      "social_media": {
         "facebook": "https://www.facebook.com/groups/231689214205431"
      }
   },
   {
      "index": 30,
      "country": "United States of America",
      "city": "Bentonville",
      "lat": 36.372852,
      "lng": -94.20882,
      "deans": [
         "Harshavardhan R Nannur"
      ],
      "social_media": {
         "facebook": "https://www.facebook.com/groups/589210834814334"
      }
   },
   {
      "index": 32,
      "country": "Canada",
      "city": "Toronto",
      "lat": 43.653225,
      "lng": -79.38319,
      "deans": [
         "Tanzim Saqib",
         "."
      ],
      "social_media": {
         "facebook": "https://www.https://www.facebook.com/groups/TorontoSchoolofAI/"
      }
   },
   {
      "index": 33,
      "country": "Canada",
      "city": "Vancouver",
      "lat": 49.28273,
      "lng": -123.120735,
      "deans": [
         "Johannes Harmse"
      ],
      "social_media": null
   },
   {
      "index": 34,
      "country": "Germany",
      "city": "Berlin",
      "lat": 52.520008,
      "lng": 13.404954,
      "deans": [
         "Senyao Hou",
         "Christian Röpke"
      ],
      "social_media": {
         "meetup": "https://www.https://www.meetup.com/BerlinSchoolAI/"
      }
   },
   {
      "index": 35,
      "country": "Switzerland",
      "city": "Bern",
      "lat": 46.947975,
      "lng": 7.447447,
      "deans": [
         "Luca Kern",
         "I"
      ],
      "social_media": {
         "meetup": "https://www.https://www.meetup.com/Bern-School-Of-Ai/"
      }
   },
   {
      "index": 36,
      "country": "Canada",
      "city": "Hamilton",
      "lat": 43.255722,
      "lng": -79.8711,
      "deans": [
         "Max Qasmi",
         ".Bfb"
      ],
      "social_media": {
         "facebook": "https://www.facebook.com/groups/231484814193189"
      }
   },
   {
      "index": 37,
      "country": "France",
      "city": "Bordeaux",
      "lat": 44.837788,
      "lng": -0.57918,
      "deans": [
         "Rémi Caland"
      ],
      "social_media": {
         "meetup": "https://www.meetup.com/fr-FR/bordeaux-school-ai/"
      }
   },
   {
      "index": 38,
      "country": "Brazil",
      "city": "Brasilia",
      "lat": -15.826691,
      "lng": -47.92182,
      "deans": [
         "Arthur Canotilho Machado"
      ],
      "social_media": {
         "facebook": "https://www.facebook.com/groups/spschoolofai"
      }
   },
   {
      "index": 39,
      "country": "Romania",
      "city": "Bucharest",
      "lat": 44.42677,
      "lng": 26.10254,
      "deans": [
         "Paul Bricman",
         "Cezar Zamfir"
      ],
      "social_media": {
         "facebook": "https://www.facebook.com/groups/690595131287667"
      }
   },
   {
      "index": 40,
      "country": "Hungary",
      "city": "Budapest",
      "lat": 47.497913,
      "lng": 19.040236,
      "deans": [
         "Kövesd Viktor",
         "Horváth Péter"
      ],
      "social_media": {
         "meetup": "https://www.meetup.com/School-of-AI-Budapest/"
      }
   },
   {
      "index": 41,
      "country": "Argentina",
      "city": "Buenos Aires",
      "lat": -34.603683,
      "lng": -58.381557,
      "deans": [
         "Juan Francisco D’Angelo"
      ],
      "social_media": {
         "facebook": "https://www.facebook.com/groups/273587676788169",
         "meetup": "https://www.meetup.com/es/meetup-group-zROpZxkd/"
      }
   },
   {
      "index": 42,
      "country": "United States of America",
      "city": "Buffalo, New York ",
      "lat": 42.886448,
      "lng": -78.87837,
      "deans": [
         "Gregory Shavers Jr"
      ],
      "social_media": {
         "facebook": "https://www.facebook.com/groups/497569094037650",
         "meetup": "https://www.meetup.com/Buffalo-School-of-AI/"
      }
   },
   {
      "index": 43,
      "country": "United States of America",
      "city": "Caldwell, New Jersey",
      "lat": 40.83982,
      "lng": -74.276535,
      "deans": [
         "Bigyan Karki"
      ],
      "social_media": {
         "facebook": "https://www.https://www.facebook.com/groups/275935953207619/"
      }
   },
   {
      "index": 44,
      "country": "South Africa",
      "city": "Cape Town",
      "lat": -33.92487,
      "lng": 18.424055,
      "deans": [
         "Ivor Pietersen"
      ],
      "social_media": {
         "facebook": "https://www.facebook.com/groups/2152360028420280"
      }
   },
   {
      "index": 45,
      "country": "Colombia",
      "city": "Barranquilla",
      "lat": 11.004107,
      "lng": -74.806984,
      "deans": [
         "Ricardo Pretelt"
      ],
      "social_media": {
         "facebook": "https://www.facebook.com/groups/649987352053419"
      }
   },
   {
      "index": 46,
      "country": "Colombia",
      "city": "Bucaramanga",
      "lat": 7.119349,
      "lng": -73.12274,
      "deans": [
         "Ariel Ortiz Beltrán"
      ],
      "social_media": {
         "facebook": "https://www.facebook.com/groups/229180794466712"
      }
   },
   {
      "index": 47,
      "country": "South Africa",
      "city": "Cape Town",
      "lat": -33.92487,
      "lng": 18.424055,
      "deans": [
         "Tshepo Moagi"
      ],
      "social_media": {
         "facebook": "https://www.facebook.com/groups/2152360028420280"
      }
   },
   {
      "index": 48,
      "country": "United Kingdom of Great Britain and Northern Ireland",
      "city": "Cardiff",
      "lat": 51.481583,
      "lng": -3.17909,
      "deans": [
         "Ka Joon Chin"
      ],
      "social_media": {
         "facebook": "https://www.facebook.com/groups/2092920414294846"
      }
   },
   {
      "index": 49,
      "country": "Germany",
      "city": "Gießen",
      "lat": 50.584053,
      "lng": 8.678403,
      "deans": [
         "Bilal Karim Reffas"
      ],
      "social_media": {
         "meetup": "https://www.https://www.meetup.com/Giessen-School-of-AI/"
      }
   },
   {
      "index": 50,
      "country": "Morocco",
      "city": "Casablanca",
      "lat": 33.57311,
      "lng": -7.5898433,
      "deans": [
         "Firdaouss Doukkali"
      ],
      "social_media": {
         "facebook": "https://www.facebook.com/groups/308293676400129"
      }
   },
   {
      "index": 51,
      "country": "United States of America",
      "city": "Charlotte",
      "lat": 35.227085,
      "lng": -80.843124,
      "deans": [
         "Karthik Naga",
         "Mario Ordoñez"
      ],
      "social_media": {
         "facebook": "https://www.facebook.com/groups/220166025297103"
      }
   },
   {
      "index": 52,
      "country": "China",
      "city": "Chengdu",
      "lat": 30.572815,
      "lng": 104.0668,
      "deans": [
         "Syed Falahuddin Quadri"
      ],
      "social_media": {
         "facebook": "https://www.facebook.com/groups/517351098699455"
      }
   },
   {
      "index": 53,
      "country": "United States of America",
      "city": "Chicago",
      "lat": 41.878113,
      "lng": -87.6298,
      "deans": [
         "Hiral Mehta"
      ],
      "social_media": {
         "facebook": "https://www.facebook.com/groups/232050507503725"
      }
   },
   {
      "index": 54,
      "country": "United States of America",
      "city": "Chicago",
      "lat": 41.878113,
      "lng": -87.6298,
      "deans": [
         "Vedant Pathak"
      ],
      "social_media": {
         "facebook": "https://www.facebook.com/groups/232050507503725"
      }
   },
   {
      "index": 55,
      "country": "United States of America",
      "city": "Cincinnati",
      "lat": 39.10312,
      "lng": -84.51202,
      "deans": [
         "Brian Woodward"
      ],
      "social_media": {
         "meetup": "https://www.meetup.com/Cincinnati-School-of-AI/"
      }
   },
   {
      "index": 56,
      "country": "United States of America",
      "city": "Cincinnati",
      "lat": 39.10312,
      "lng": -84.51202,
      "deans": [
         "Jayson Mazziotti"
      ],
      "social_media": {
         "meetup": "https://www.meetup.com/Cincinnati-School-of-AI/"
      }
   },
   {
      "index": 57,
      "country": "Argentina",
      "city": "Ciudad Autónoma De Buenos Aires",
      "lat": -34.603683,
      "lng": -58.381557,
      "deans": [
         "Christian Ferreyra"
      ],
      "social_media": {
         "facebook": "https://www.facebook.com/groups/273587676788169"
      }
   },
   {
      "index": 58,
      "country": "France",
      "city": "Clermont-Ferrand",
      "lat": 45.77722,
      "lng": 3.087025,
      "deans": [
         "Mehdi Mounsif"
      ],
      "social_media": {
         "meetup": "https://www.https://www.meetup.com/Clermont-Ferrand-School-of-AI/"
      }
   },
   {
      "index": 59,
      "country": "Germany",
      "city": "Würzburg",
      "lat": 49.791306,
      "lng": 9.953355,
      "deans": [
         "Dr. Tristan Behrens"
      ],
      "social_media": {
         "facebook": "https://www.facebook.com/groups/2194416527258170"
      }
   },
   {
      "index": 60,
      "country": "Germany",
      "city": "Ilmenau",
      "lat": 50.68435,
      "lng": 10.925473,
      "deans": [
         "Mario Schroeder"
      ],
      "social_media": {
         "facebook": "https://www.facebook.com/groups/1967306339958567..."
      }
   },
   {
      "index": 61,
      "country": "Romania",
      "city": "Cluj Napoca",
      "lat": 46.77121,
      "lng": 23.623636,
      "deans": [
         "Marius Safta"
      ],
      "social_media": {
         "meetup": "https://www.meetup.com/meetup-group-twymNRcP/"
      }
   },
   {
      "index": 63,
      "country": "Bolivia (Plurinational State of)",
      "city": "Cochabamba",
      "lat": -17.413977,
      "lng": -66.16532,
      "deans": [
         "Lesly Sandra Zerna Orellana"
      ],
      "social_media": {
         "facebook": "https://www.facebook.com/groups/263217757836106"
      }
   },
   {
      "index": 64,
      "country": "Algeria",
      "city": "Mostaganem",
      "lat": 36.013123,
      "lng": 0.1401381,
      "deans": [
         "Amina Delali"
      ],
      "social_media": {
         "facebook": "https://www.facebook.com/groups/505018559960282"
      }
   },
   {
      "index": 65,
      "country": "Algeria",
      "city": "Algiers",
      "lat": 36.75377,
      "lng": 3.058756,
      "deans": [
         "Hadjer Benmeziane"
      ],
      "social_media": {
         "facebook": "https://www.facebook.com/groups/244726382840305"
      }
   },
   {
      "index": 66,
      "country": "United States of America",
      "city": "College Park",
      "lat": 38.989697,
      "lng": -76.93776,
      "deans": [
         "Harshvardhan Uppaluru"
      ],
      "social_media": {
         "meetup": "https://www.meetup.com/College-Park-School-of-AI/"
      }
   },
   {
      "index": 67,
      "country": "Sri Lanka",
      "city": "Colombo",
      "lat": 6.9270787,
      "lng": 79.861244,
      "deans": [
         "Mithushan Jalangan"
      ],
      "social_media": {
         "facebook": "https://www.facebook.com/groups/875695702626680"
      }
   },
   {
      "index": 68,
      "country": "Egypt",
      "city": "Cairo",
      "lat": 30.04442,
      "lng": 31.235712,
      "deans": [
         "Heba Abd-AlQader",
         "Mahmoud Shokry"
      ],
      "social_media": {
         "facebook": "https://www.facebook.com/groups/CairoSchoolOfAI"
      }
   },
   {
      "index": 69,
      "country": "United States of America",
      "city": "Columbus",
      "lat": 39.961174,
      "lng": -82.998795,
      "deans": [
         "Kranti Asapu"
      ],
      "social_media": {
         "meetup": "https://www.meetup.com/Columbus-School-of-AI/"
      }
   },
   {
      "index": 70,
      "country": "Argentina",
      "city": "Córdoba",
      "lat": -31.420084,
      "lng": -64.188774,
      "deans": [
         "Emmanuel Arias"
      ],
      "social_media": {
         "facebook": "https://www.facebook.com/groups/1810489215702247"
      }
   },
   {
      "index": 72,
      "country": "Saudi Arabia",
      "city": "Dammam",
      "lat": 26.420683,
      "lng": 50.088795,
      "deans": [
         "mohammed alawad"
      ],
      "social_media": {
         "meetup": "https://www.meetup.com/Dammam-School-of-AI/"
      }
   },
   {
      "index": 73,
      "country": "Germany",
      "city": "Darmstadt",
      "lat": 49.872826,
      "lng": 8.651193,
      "deans": [
         "Christian Beckmann"
      ],
      "social_media": null
   },
   {
      "index": 74,
      "country": "United States of America",
      "city": "Denver",
      "lat": 39.739235,
      "lng": -104.99025,
      "deans": [
         "Ido Samuelson",
         "Shranith Linga"
      ],
      "social_media": {
         "meetup": "https://www.meetup.com/denver-school-of-ai"
      }
   },
   {
      "index": 75,
      "country": "United States of America",
      "city": "Detroit",
      "lat": 42.33143,
      "lng": -83.04575,
      "deans": [
         "Pete"
      ],
      "social_media": {
         "facebook": "https://www.facebook.com/groups/2089644244622653",
         "meetup": "https://www.meetup.com/Motor-City-School-of-AI/"
      }
   },
   {
      "index": 76,
      "country": "Netherlands",
      "city": "Dongen",
      "lat": 51.628708,
      "lng": 4.9382386,
      "deans": [
         "Jan Bours"
      ],
      "social_media": {
         "facebook": "https://www.facebook.com/groups/667717753586119"
      }
   },
   {
      "index": 77,
      "country": "China",
      "city": "Dongguan",
      "lat": 23.020674,
      "lng": 113.7518,
      "deans": [
         "Jess Yuan"
      ],
      "social_media": {
         "facebook": "https://www.facebook.com/groups/DongguangSchoo..."
      }
   },
   {
      "index": 78,
      "country": "Cameroon",
      "city": "Douala",
      "lat": 4.0510564,
      "lng": 9.767869,
      "deans": [
         "Ngong Constantine Mbufung"
      ],
      "social_media": {
         "facebook": "https://www.facebook.com/groups/doualaschoolofai"
      }
   },
   {
      "index": 79,
      "country": "South Africa",
      "city": "Durban",
      "lat": -29.85868,
      "lng": 31.021841,
      "deans": [
         "Abuobayda Shabat"
      ],
      "social_media": {
         "facebook": "https://www.facebook.com/groups/261838534540739"
      }
   },
   {
      "index": 80,
      "country": "Kenya",
      "city": "Eldoret",
      "lat": 0.5142775,
      "lng": 35.26978,
      "deans": [
         "Benson Ndora"
      ],
      "social_media": {
         "facebook": "https://www.facebook.com/groups/961022270748792"
      }
   },
   {
      "index": 81,
      "country": "United States of America",
      "city": "Fairfax",
      "lat": 38.846222,
      "lng": -77.30637,
      "deans": [
         "Shiva Mantri",
         "TBD"
      ],
      "social_media": {
         "meetup": "https://www.https://www.meetup.com/Fairfax-School-of-AI"
      }
   },
   {
      "index": 82,
      "country": "Brazil",
      "city": "Florianópolis",
      "lat": -27.59487,
      "lng": -48.548218,
      "deans": [
         "Claudio Souza",
         "Calebe Elias Ribeiro Brim"
      ],
      "social_media": {
         "facebook": "https://www.facebook.com/groups/schoolofaifloripa"
      }
   },
   {
      "index": 83,
      "country": "United States of America",
      "city": "Frisco",
      "lat": 33.150673,
      "lng": -96.82361,
      "deans": [
         "Sivabalan Kannan"
      ],
      "social_media": {
         "facebook": "https://www.facebook.com/groups/224403534910583"
      }
   },
   {
      "index": 84,
      "country": "United States of America",
      "city": "Frisco",
      "lat": 33.150673,
      "lng": -96.82361,
      "deans": [
         "vamsi vegi"
      ],
      "social_media": {
         "facebook": "https://www.facebook.com/groups/656465488074120"
      }
   },
   {
      "index": 85,
      "country": "Brazil",
      "city": "Gameleira",
      "lat": -8.585348,
      "lng": -35.38711,
      "deans": [
         "Julio Cezar do Nascimento"
      ],
      "social_media": {
         "facebook": "https://www.facebook.com/groups/274748976447858"
      }
   },
   {
      "index": 86,
      "country": "Nepal",
      "city": "Gaur",
      "lat": 26.783125,
      "lng": 85.27742,
      "deans": [
         "Gyaneshwar"
      ],
      "social_media": null
   },
   {
      "index": 87,
      "country": "Poland",
      "city": "Gdansk",
      "lat": 54.352024,
      "lng": 18.646639,
      "deans": [
         "Przemyslaw Jack Kabacinski"
      ],
      "social_media": null
   },
   {
      "index": 88,
      "country": "Congo (Democratic Republic of the)",
      "city": "Goma",
      "lat": -1.658501,
      "lng": 29.220455,
      "deans": [
         "Guillain BISIMWA"
      ],
      "social_media": {
         "facebook": "https://www.facebook.com/groups/2130671163873375"
      }
   },
   {
      "index": 89,
      "country": "Indonesia",
      "city": "Gorontalo",
      "lat": 0.5435442,
      "lng": 123.05677,
      "deans": [
         "Riska Kurnianto Abdullah"
      ],
      "social_media": {
         "facebook": "https://www.facebook.com/groups/247923479164946"
      }
   },
   {
      "index": 90,
      "country": "France",
      "city": "Grenoble",
      "lat": 45.18853,
      "lng": 5.724524,
      "deans": [
         "Miguel Solinas",
         "Bastien Chapuis"
      ],
      "social_media": {
         "facebook": "https://www.facebook.com/groups/1129647340509241"
      }
   },
   {
      "index": 91,
      "country": "Guatemala",
      "city": "Guatemala City",
      "lat": 14.634915,
      "lng": -90.50688,
      "deans": [
         "David Alejandro Divas Cruz"
      ],
      "social_media": {
         "facebook": "https://www.facebook.com/groups/gtschoolofai",
         "meetup": "https://www.meetup.com/Guatemala-School-of-AI/"
      }
   },
   {
      "index": 93,
      "country": "Norway",
      "city": "Hamar",
      "lat": 60.794533,
      "lng": 11.067998,
      "deans": [
         "Terje Berg"
      ],
      "social_media": {
         "meetup": "https://www.meetup.com/Hamar-School-of-AI/"
      }
   },
   {
      "index": 94,
      "country": "Germany",
      "city": "Hamburg",
      "lat": 53.551086,
      "lng": 9.993682,
      "deans": [
         "Christoph Könning"
      ],
      "social_media": {
         "facebook": "https://www.facebook.com/groups/233478970705025",
         "meetup": "https://www.meetup.com/Hamburg-School-of-AI/"
      }
   },
   {
      "index": 95,
      "country": "Zimbabwe",
      "city": "Harare",
      "lat": -17.825165,
      "lng": 31.03351,
      "deans": [
         "Simbarashe Timothy Motsi"
      ],
      "social_media": {
         "facebook": "https://www.facebook.com/groups/HarareSchoolOfAI"
      }
   },
   {
      "index": 96,
      "country": "United States of America",
      "city": "Hartford",
      "lat": 41.765804,
      "lng": -72.67337,
      "deans": [
         "Chris Morris"
      ],
      "social_media": {
         "meetup": "https://www.meetup.com/Hartford-School-of-AI/"
      }
   },
   {
      "index": 97,
      "country": "Germany",
      "city": "Heidenheim An Der Brenz",
      "lat": 48.689396,
      "lng": 10.161095,
      "deans": [
         "Korbinian Hitthaler"
      ],
      "social_media": {
         "facebook": "https://www.facebook.com/groups/307046433400734"
      }
   },
   {
      "index": 98,
      "country": "Finland",
      "city": "Helsinki",
      "lat": 60.169857,
      "lng": 24.93838,
      "deans": [
         "Aditya Jitta"
      ],
      "social_media": {
         "meetup": "https://www.meetup.com/Helsinki-School-of-AI/"
      }
   },
   {
      "index": 99,
      "country": "Germany",
      "city": "Hildesheim",
      "lat": 52.154778,
      "lng": 9.957965,
      "deans": [
         "Marcel Heinz"
      ],
      "social_media": {
         "meetup": "https://www.meetup.com/Hildesheim-School-of-AI/"
      }
   },
   {
      "index": 100,
      "country": "India",
      "city": "Agartala",
      "lat": 23.831457,
      "lng": 91.28678,
      "deans": [
         "Sravanth baratam"
      ],
      "social_media": {
         "facebook": "https://www.https://www.facebook.com/groups/AgartalaSchoolofAI/"
      }
   },
   {
      "index": 101,
      "country": "India",
      "city": "Agra",
      "lat": 27.17667,
      "lng": 78.00807,
      "deans": [
         "Agyeya Dutta"
      ],
      "social_media": {
         "facebook": "https://www.facebook.com/groups/2102343933363054"
      }
   },
   {
      "index": 102,
      "country": "India",
      "city": "Ahmedabad",
      "lat": 23.022505,
      "lng": 72.571365,
      "deans": [
         "Urvish Patel",
         "Shivam Patel ",
         "Tinoo Sukhadiya"
      ],
      "social_media": {
         "facebook": "https://www.facebook.com/groups/315624655669323"
      }
   },
   {
      "index": 103,
      "country": "India",
      "city": "Ajmer",
      "lat": 26.449896,
      "lng": 74.639915,
      "deans": [
         "Mahendra Bishnoi"
      ],
      "social_media": {
         "facebook": "https://www.facebook.com/groups/schoolofaiajmer"
      }
   },
   {
      "index": 104,
      "country": "India",
      "city": "Ambala",
      "lat": 30.37818,
      "lng": 76.776695,
      "deans": [
         "Bharat Kumar"
      ],
      "social_media": {
         "meetup": "https://www.meetup.com/marwari"
      }
   },
   {
      "index": 105,
      "country": "India",
      "city": "Amritsar",
      "lat": 31.63398,
      "lng": 74.87226,
      "deans": [
         "Puneet Saini"
      ],
      "social_media": {
         "facebook": "https://www.facebook.com/groups/SchoolOfAIAsr"
      }
   },
   {
      "index": 106,
      "country": "India",
      "city": "Bengaluru",
      "lat": 12.971599,
      "lng": 77.59457,
      "deans": [
         "Amogh Sharma"
      ],
      "social_media": {
         "facebook": "https://www.facebook.com/groups/458978281238679",
         "meetup": "https://www.meetup.com/Bengaluru-School-of-AI/..."
      }
   },
   {
      "index": 107,
      "country": "India",
      "city": "Bhubaneswar",
      "lat": 20.296059,
      "lng": 85.82454,
      "deans": [
         "Pravin Vedurla"
      ],
      "social_media": {
         "facebook": "https://www.facebook.com/groups/424214141434174"
      }
   },
   {
      "index": 108,
      "country": "India",
      "city": "Chennai",
      "lat": 13.08268,
      "lng": 80.27072,
      "deans": [
         "Gogul Ilango"
      ],
      "social_media": {
         "meetup": "https://www.meetup.com/Chennai-School-of-AI/"
      }
   },
   {
      "index": 110,
      "country": "India",
      "city": "Dehradun",
      "lat": 30.316494,
      "lng": 78.03219,
      "deans": [
         "Avik Jain"
      ],
      "social_media": {
         "facebook": "https://www.facebook.com/groups/440065713068018"
      }
   },
   {
      "index": 111,
      "country": "India",
      "city": "Ernakulam",
      "lat": 9.981636,
      "lng": 76.29988,
      "deans": [
         "Vishal Borana"
      ],
      "social_media": {
         "facebook": "https://www.facebook.com/groups/708357919500071"
      }
   },
   {
      "index": 112,
      "country": "India",
      "city": "Gandhinagar",
      "lat": 23.215635,
      "lng": 72.63694,
      "deans": [
         "Ankit Pachauri ",
         "Raunak Swarnkar"
      ],
      "social_media": {
         "facebook": "https://www.https://www.facebook.com/groups/GandhinagarAISchool/"
      }
   },
   {
      "index": 113,
      "country": "India",
      "city": "Goa",
      "lat": 15.299327,
      "lng": 74.12399,
      "deans": [
         "Ashutosh Kumar"
      ],
      "social_media": {
         "meetup": "https://www.meetup.com/Goa-School-of-AI/"
      }
   },
   {
      "index": 114,
      "country": "India",
      "city": "Gulbarga, Karnataka",
      "lat": 17.329731,
      "lng": 76.8343,
      "deans": [
         "Bhargav A Kalaskar"
      ],
      "social_media": {
         "facebook": "https://www.facebook.com/groups/731708620494942"
      }
   },
   {
      "index": 115,
      "country": "India",
      "city": "Gurgaon",
      "lat": 28.459497,
      "lng": 77.02664,
      "deans": [
         "Deepak Prakash Sorari"
      ],
      "social_media": {
         "facebook": "https://www.facebook.com/groups/schoolofaigurgaon"
      }
   },
   {
      "index": 116,
      "country": "India",
      "city": "Gwalior",
      "lat": 26.218287,
      "lng": 78.18283,
      "deans": [
         "Atul Anand"
      ],
      "social_media": null
   },
   {
      "index": 117,
      "country": "India",
      "city": "Hubli",
      "lat": 15.364708,
      "lng": 75.123955,
      "deans": [
         "CHANDAN MISHRA"
      ],
      "social_media": {
         "facebook": "https://www.facebook.com/groups/1871918046187846"
      }
   },
   {
      "index": 118,
      "country": "India",
      "city": "Hyderabad",
      "lat": 17.385044,
      "lng": 78.48667,
      "deans": [
         "Barri Dinesh"
      ],
      "social_media": {
         "facebook": "https://www.https://www.facebook.com/groups/279964662784304/"
      }
   },
   {
      "index": 119,
      "country": "India",
      "city": "Jabalpur",
      "lat": 23.181467,
      "lng": 79.986404,
      "deans": [
         "Vibhav Tiwari"
      ],
      "social_media": {
         "facebook": "https://www.https://www.facebook.com/groups/SchoolofAIJabalpur/"
      }
   },
   {
      "index": 120,
      "country": "India",
      "city": "Jaipur",
      "lat": 26.912434,
      "lng": 75.78727,
      "deans": [
         "Jess Yuan",
         "Ngong Constantine Mbufung"
      ],
      "social_media": {
         "facebook": "https://www.facebook.com/groups/schoolofaijaipur"
      }
   },
   {
      "index": 121,
      "country": "India",
      "city": "Jalandhar",
      "lat": 31.326015,
      "lng": 75.57618,
      "deans": [
         "Mohammad Ashar Khan",
         "Raja Rahul"
      ],
      "social_media": {
         "facebook": "https://www.facebook.com/groups/2010932775607270"
      }
   },
   {
      "index": 122,
      "country": "India",
      "city": "Kakinada",
      "lat": 16.989065,
      "lng": 82.24747,
      "deans": [
         "Ricardo Pretelt",
         "Ariel Ortiz Beltrán"
      ],
      "social_media": null
   },
   {
      "index": 123,
      "country": "India",
      "city": "Kanpur Nagar",
      "lat": 26.414825,
      "lng": 80.23213,
      "deans": [
         "Himanshu Awasthi"
      ],
      "social_media": {
         "facebook": "https://www.facebook.com/groups/KanpurAI",
         "meetup": "https://www.meetup.com/Kanpur-School-of-AI/"
      }
   },
   {
      "index": 124,
      "country": "India",
      "city": "Karnal",
      "lat": 29.685694,
      "lng": 76.990486,
      "deans": [
         "Mukul Sharma"
      ],
      "social_media": {
         "facebook": "https://www.facebook.com/groups/karnalschoolofai"
      }
   },
   {
      "index": 125,
      "country": "India",
      "city": "Lucknow",
      "lat": 26.846693,
      "lng": 80.94617,
      "deans": [
         "Nitin Gupta",
         "Shikhar Shukla"
      ],
      "social_media": {
         "facebook": "https://www.facebook.com/groups/163759261114229"
      }
   },
   {
      "index": 126,
      "country": "India",
      "city": "Madurai",
      "lat": 9.9252,
      "lng": 78.119774,
      "deans": [
         "VENKATRAMAN A"
      ],
      "social_media": {
         "facebook": "https://www.https://www.facebook.com/groups/madurai.school.ofai/"
      }
   },
   {
      "index": 127,
      "country": "India",
      "city": "Mangalore",
      "lat": 12.914142,
      "lng": 74.85596,
      "deans": [
         "Shreyas Baliga"
      ],
      "social_media": {
         "facebook": "https://www.facebook.com/groups/MlrSchoolofAI"
      }
   },
   {
      "index": 128,
      "country": "India",
      "city": "Meerut",
      "lat": 28.984463,
      "lng": 77.70641,
      "deans": [
         "Akshay Chaudhary"
      ],
      "social_media": {
         "facebook": "https://www.facebook.com/groups/meerut.schoolOfAI",
         "meetup": "https://www.meetup.com/meerut-school-of-ai"
      }
   },
   {
      "index": 129,
      "country": "India",
      "city": "Mumbai",
      "lat": 19.075983,
      "lng": 72.877655,
      "deans": [
         "Anand Sonawane"
      ],
      "social_media": {
         "facebook": "https://www.facebook.com/groups/1622455081386835",
         "meetup": "https://www.meetup.com/Mumbai-School-of-AI/"
      }
   },
   {
      "index": 130,
      "country": "India",
      "city": "Nagpur",
      "lat": 21.1458,
      "lng": 79.08816,
      "deans": [
         "Anshul Piperde",
         "Swapnil Shindemeshram"
      ],
      "social_media": {
         "facebook": "https://www.facebook.com/groups/243781973125799"
      }
   },
   {
      "index": 131,
      "country": "India",
      "city": "Nashik",
      "lat": 19.997454,
      "lng": 73.7898,
      "deans": [
         "Shantanu Suryawanshi"
      ],
      "social_media": {
         "facebook": "https://www.facebook.com/groups/293934121188152"
      }
   },
   {
      "index": 132,
      "country": "India",
      "city": "Nellore",
      "lat": 14.442598,
      "lng": 79.98646,
      "deans": [
         "Yaswanth Sai Palaghat"
      ],
      "social_media": {
         "facebook": "https://www.facebook.com/groups/2093326167588711"
      }
   },
   {
      "index": 133,
      "country": "India",
      "city": "Patna",
      "lat": 25.594095,
      "lng": 85.137566,
      "deans": [
         "VISHAL PANDEY"
      ],
      "social_media": {
         "facebook": "https://www.facebook.com/groups/562364684187569"
      }
   },
   {
      "index": 134,
      "country": "India",
      "city": "Pune",
      "lat": 18.52043,
      "lng": 73.85674,
      "deans": [
         "Prakash Chandra Chhipa"
      ],
      "social_media": {
         "facebook": "https://www.facebook.com/groups/puneschoolofai"
      }
   },
   {
      "index": 135,
      "country": "India",
      "city": "Solapur",
      "lat": 17.65992,
      "lng": 75.90639,
      "deans": [
         "GuruRaj Awate",
         "Ritesh Adlak"
      ],
      "social_media": {
         "facebook": "https://www.https://www.facebook.com/groups/SchoolofAI.India.Maharashtra/"
      }
   },
   {
      "index": 136,
      "country": "India",
      "city": "Rajkot",
      "lat": 22.303894,
      "lng": 70.80216,
      "deans": [
         "Devansh Trivedi",
         "Karan Kharecha"
      ],
      "social_media": {
         "facebook": "https://www.facebook.com/groups/Rajkot.Wizards"
      }
   },
   {
      "index": 137,
      "country": "India",
      "city": "Surat",
      "lat": 21.17024,
      "lng": 72.83106,
      "deans": [
         "Goti ritul bhagvanbhai",
         "Samarth Modi"
      ],
      "social_media": {
         "facebook": "https://www.facebook.com/groups/228420234513756"
      }
   },
   {
      "index": 138,
      "country": "India",
      "city": "Siliguri",
      "lat": 26.7271,
      "lng": 88.39529,
      "deans": [
         "Abhinav Kumar",
         "Raj Saha"
      ],
      "social_media": {
         "facebook": "https://www.facebook.com/groups/695500400788713"
      }
   },
   {
      "index": 139,
      "country": "India",
      "city": "Trivandrum",
      "lat": 8.524139,
      "lng": 76.93664,
      "deans": [
         "Robin Reni",
         "Nevin Baiju"
      ],
      "social_media": {
         "facebook": "https://www.facebook.com/groups/2185077748487523"
      }
   },
   {
      "index": 140,
      "country": "India",
      "city": "Thadepalligudem",
      "lat": 16.81384,
      "lng": 81.52124,
      "deans": [
         "Mehant kammakomati"
      ],
      "social_media": {
         "facebook": "https://www.facebook.com/groups/APSchoolOfAI"
      }
   },
   {
      "index": 141,
      "country": "India",
      "city": "Thiruthangal",
      "lat": 9.480746,
      "lng": 77.808136,
      "deans": [
         "Karthikeyan"
      ],
      "social_media": {
         "facebook": "https://www.facebook.com/groups/331708537371036"
      }
   },
   {
      "index": 142,
      "country": "India",
      "city": "Tumkur",
      "lat": 13.339168,
      "lng": 77.114,
      "deans": [
         "Abhinav Kumar Mallick"
      ],
      "social_media": {
         "facebook": "https://www.facebook.com/groups/1864986780251717"
      }
   },
   {
      "index": 143,
      "country": "India",
      "city": "Udaipur",
      "lat": 24.585445,
      "lng": 73.71248,
      "deans": [
         "Ankit Pachauri"
      ],
      "social_media": null
   },
   {
      "index": 144,
      "country": "India",
      "city": "Vadodara",
      "lat": 22.30716,
      "lng": 73.18122,
      "deans": [
         "Jaan Olev",
         "Jussi Seppala"
      ],
      "social_media": {
         "facebook": "https://www.facebook.com/groups/538802816540858"
      }
   },
   {
      "index": 145,
      "country": "India",
      "city": "Vellore",
      "lat": 12.916516,
      "lng": 79.1325,
      "deans": [
         "Mohamed Hashim"
      ],
      "social_media": {
         "facebook": "https://www.facebook.com/groups/2085048905144761"
      }
   },
   {
      "index": 146,
      "country": "India",
      "city": "Vijayawada",
      "lat": 16.506174,
      "lng": 80.64802,
      "deans": [
         "Wafaa Wardah",
         "Rémi Caland",
         "Nikhil Chigali"
      ],
      "social_media": {
         "facebook": "https://www.facebook.com/groups/APSchoolOfAI"
      }
   },
   {
      "index": 147,
      "country": "India",
      "city": "Ahmedabad",
      "lat": 23.022505,
      "lng": 72.571365,
      "deans": [
         "Tinoo Sukhadia"
      ],
      "social_media": {
         "facebook": "https://www.facebook.com/groups/SchoolofAI"
      }
   },
   {
      "index": 148,
      "country": "India",
      "city": "Bareilly",
      "lat": 28.367035,
      "lng": 79.430435,
      "deans": [
         "Himanshu Kumar"
      ],
      "social_media": {
         "facebook": "https://www.facebook.com/groups/2152172591728608"
      }
   },
   {
      "index": 150,
      "country": "India",
      "city": "Chennai",
      "lat": 13.08268,
      "lng": 80.27072,
      "deans": [
         "Lemonnier Nils"
      ],
      "social_media": {
         "facebook": "https://www.facebook.com/groups/2081058995489365"
      }
   },
   {
      "index": 151,
      "country": "India",
      "city": "Coimbatore",
      "lat": 11.016845,
      "lng": 76.95583,
      "deans": [
         "Navaneeth Malingan",
         "Sarvade Sai Sankeerth",
         "Vinodh Ewards"
      ],
      "social_media": {
         "facebook": "https://www.https://www.facebook.com/groups/440187506472896/"
      }
   },
   {
      "index": 152,
      "country": "India",
      "city": "Delhi",
      "lat": 28.70406,
      "lng": 77.10249,
      "deans": [
         "Ravinder Bhattoo",
         "Sumit Saha",
         "Prince Nitvik"
      ],
      "social_media": {
         "facebook": "https://www.facebook.com/groups/443357789506132"
      }
   },
   {
      "index": 153,
      "country": "India",
      "city": "Greater Noida",
      "lat": 28.474388,
      "lng": 77.50399,
      "deans": [
         "Kaushal Sharma"
      ],
      "social_media": {
         "facebook": "http://www.https://www.facebook.com/groups/200501860503190"
      }
   },
   {
      "index": 154,
      "country": "India",
      "city": "Guwahati",
      "lat": 26.144516,
      "lng": 91.73624,
      "deans": [
         "Ka Joon Chin",
         "Piotr Wiercinski"
      ],
      "social_media": {
         "facebook": "https://www.facebook.com/groups/618705281856371"
      }
   },
   {
      "index": 155,
      "country": "India",
      "city": "Gwalior",
      "lat": 26.218287,
      "lng": 78.18283,
      "deans": [
         "Harsh Shrivastava"
      ],
      "social_media": {
         "facebook": "https://www.facebook.com/groups/317541345655958"
      }
   },
   {
      "index": 156,
      "country": "India",
      "city": "Indore",
      "lat": 22.719568,
      "lng": 75.85773,
      "deans": [
         "Chandravardhan Singh"
      ],
      "social_media": null
   },
   {
      "index": 157,
      "country": "India",
      "city": "Jaipur",
      "lat": 26.912434,
      "lng": 75.78727,
      "deans": [
         "Gbètondji Dovonon",
         "Angela Munyao"
      ],
      "social_media": null
   },
   {
      "index": 158,
      "country": "India",
      "city": "Kolkata",
      "lat": 22.572645,
      "lng": 88.36389,
      "deans": [
         "David Alejandro Divas Cruz",
         "David Alejandro Divas Cruz"
      ],
      "social_media": {
         "facebook": "https://www.facebook.com/groups/2122735824635205"
      }
   },
   {
      "index": 159,
      "country": "India",
      "city": "Lucknow",
      "lat": 26.846693,
      "lng": 80.94617,
      "deans": [
         "Nitin Gupta",
         "Shikhar Shukla"
      ],
      "social_media": {
         "facebook": "https://www.facebook.com/groups/163759261114229"
      }
   },
   {
      "index": 160,
      "country": "India",
      "city": "Meerut",
      "lat": 28.984463,
      "lng": 77.70641,
      "deans": [
         "Pulkit Kaushik"
      ],
      "social_media": {
         "facebook": "https://www.facebook.com/groups/574303506298485"
      }
   },
   {
      "index": 161,
      "country": "India",
      "city": "Mohali",
      "lat": 30.704649,
      "lng": 76.71787,
      "deans": [
         "Kövesd Viktor ",
         "Tibor Ormosi",
         "Horváth Péter"
      ],
      "social_media": {
         "facebook": "https://www.facebook.com/groups/216268562387449"
      }
   },
   {
      "index": 162,
      "country": "India",
      "city": "Nagpur",
      "lat": 21.1458,
      "lng": 79.08816,
      "deans": [
         "swapnil shindemeshram"
      ],
      "social_media": {
         "facebook": "https://www.facebook.com/groups/2149852385295178"
      }
   },
   {
      "index": 163,
      "country": "India",
      "city": "Navi Mumbai",
      "lat": 19.033049,
      "lng": 73.02966,
      "deans": [
         "Harsh Gupta"
      ],
      "social_media": {
         "facebook": "https://www.facebook.com/groups/276563979603831"
      }
   },
   {
      "index": 164,
      "country": "India",
      "city": "Noida",
      "lat": 28.535517,
      "lng": 77.39103,
      "deans": [
         "Jaskeerat Singh"
      ],
      "social_media": null
   },
   {
      "index": 165,
      "country": "India",
      "city": "Tiruppur",
      "lat": 11.108524,
      "lng": 77.341064,
      "deans": [
         "prashanth"
      ],
      "social_media": null
   },
   {
      "index": 166,
      "country": "India",
      "city": "Trichy",
      "lat": 10.790483,
      "lng": 78.70467,
      "deans": [
         "Wilbred Anto"
      ],
      "social_media": {
         "facebook": "https://www.facebook.com/groups/254420928730204"
      }
   },
   {
      "index": 167,
      "country": "India",
      "city": "Visakhapatnam",
      "lat": 17.686815,
      "lng": 83.21848,
      "deans": [
         "Grandhi Naga Srikanth"
      ],
      "social_media": {
         "facebook": "https://www.facebook.com/groups/229224081109870"
      }
   },
   {
      "index": 168,
      "country": "Hong Kong",
      "city": "Hong Kong",
      "lat": 22.396427,
      "lng": 114.1095,
      "deans": [
         "Martin Liu"
      ],
      "social_media": {
         "meetup": "https://www.meetup.com/Hong-Kong-School-of-AI/"
      }
   },
   {
      "index": 169,
      "country": "Iran (Islamic Republic of)",
      "city": "Shiraz",
      "lat": 29.591768,
      "lng": 52.5837,
      "deans": [
         "Mohammad Razavi"
      ],
      "social_media": {
         "facebook": "https://www.facebook.com/groups/358266391379663"
      }
   },
   {
      "index": 170,
      "country": "India",
      "city": "Pune",
      "lat": 18.52043,
      "lng": 73.85674,
      "deans": [
         "GuruRaj Awate",
         "Ritesh Adlak"
      ],
      "social_media": {
         "facebook": "https://www.https://www.facebook.com/groups/SchoolofAI.India.Maharashtra/"
      }
   },
   {
      "index": 171,
      "country": "United States of America",
      "city": "Houston",
      "lat": 29.760427,
      "lng": -95.369804,
      "deans": [
         "Ezra Schroeder",
         "Naren Karthik",
         "Janahan Gnanachandran",
         "Azam Zariff"
      ],
      "social_media": {
         "facebook": "https://www.facebook.com/groups/2242002632701563",
         "meetup": "https://www.meetup.com/Houston-School-of-AI/"
      }
   },
   {
      "index": 172,
      "country": "United States of America",
      "city": "Indianapolis",
      "lat": 39.768402,
      "lng": -86.158066,
      "deans": [
         "Joe Burns"
      ],
      "social_media": {
         "facebook": "https://www.facebook.com/groups/IndySchoolOfAI"
      }
   },
   {
      "index": 173,
      "country": "Iran (Islamic Republic of)",
      "city": "Shiraz",
      "lat": 29.591768,
      "lng": 52.5837,
      "deans": [
         "hossein namazian"
      ],
      "social_media": {
         "facebook": "https://www.facebook.com/groups/317262982174939"
      }
   },
   {
      "index": 174,
      "country": "Egypt",
      "city": "Ismailia",
      "lat": 30.596493,
      "lng": 32.271458,
      "deans": [
         "kareem hesham elsafty"
      ],
      "social_media": {
         "facebook": "https://www.facebook.com/groups/210017643200531"
      }
   },
   {
      "index": 175,
      "country": "Turkey",
      "city": "İstanbul",
      "lat": 41.008236,
      "lng": 28.97836,
      "deans": [
         "Tolga Oğuz"
      ],
      "social_media": {
         "facebook": "https://www.facebook.com/groups/413211812536128"
      }
   },
   {
      "index": 176,
      "country": "Brazil",
      "city": "Itabira",
      "lat": -19.624416,
      "lng": -43.231636,
      "deans": [
         "João Pedro Areias de Moraes"
      ],
      "social_media": {
         "facebook": "https://www.facebook.com/groups/schoolofaiitabira"
      }
   },
   {
      "index": 177,
      "country": "Indonesia",
      "city": "Jakarta",
      "lat": -6.17511,
      "lng": 106.865036,
      "deans": [
         "Haries Ramdhani"
      ],
      "social_media": {
         "facebook": "https://www.facebook.com/groups/232323780810295"
      }
   },
   {
      "index": 178,
      "country": "Indonesia",
      "city": "Jambi",
      "lat": -1.6101229,
      "lng": 103.61312,
      "deans": [
         "BOS ASMAN"
      ],
      "social_media": {
         "facebook": "https://www.facebook.com/groups/890172784514683"
      }
   },
   {
      "index": 179,
      "country": "Belgium",
      "city": "Jemeppe Sur Sambre",
      "lat": 50.46309,
      "lng": 4.678686,
      "deans": [
         "Laurent Boucher"
      ],
      "social_media": {
         "facebook": "https://www.facebook.com/groups/2065459367049998"
      }
   },
   {
      "index": 181,
      "country": "United States of America",
      "city": "Jersey City",
      "lat": 40.728157,
      "lng": -74.077644,
      "deans": [
         "Kevin Patel",
         "Sravanthi Kanchi"
      ],
      "social_media": {
         "facebook": "https://www.facebook.com/groups/661813394190042"
      }
   },
   {
      "index": 182,
      "country": "Israel",
      "city": "Jerusalem",
      "lat": 31.768318,
      "lng": 35.21371,
      "deans": [
         "Afeef Khateeb"
      ],
      "social_media": {
         "facebook": "https://www.facebook.com/groups/661867057515495"
      }
   },
   {
      "index": 184,
      "country": "Finland",
      "city": "Jyvaskyla",
      "lat": 62.242603,
      "lng": 25.747257,
      "deans": [
         "Jussi Seppala"
      ],
      "social_media": {
         "facebook": "https://www.facebook.com/groups/jklschoolofai"
      }
   },
   {
      "index": 185,
      "country": "Uganda",
      "city": "Kampala",
      "lat": 0.3475964,
      "lng": 32.58252,
      "deans": [
         "Mugume Twinamatsiko Atwine"
      ],
      "social_media": {
         "facebook": "https://www.facebook.com/groups/270444503574853",
         "meetup": "https://www.meetup.com/Kampala-School-of-AI/"
      }
   },
   {
      "index": 186,
      "country": "Uganda",
      "city": "Kampala",
      "lat": 0.3475964,
      "lng": 32.58252,
      "deans": [
         "Mutebi Tonny"
      ],
      "social_media": {
         "facebook": "https://www.facebook.com/groups/270444503574853",
         "meetup": "https://www.meetup.com/Kampala-School-of-AI/"
      }
   },
   {
      "index": 187,
      "country": "Nigeria",
      "city": "Kano",
      "lat": 12.002179,
      "lng": 8.591956,
      "deans": [
         "Abdulhakim Bashir"
      ],
      "social_media": null
   },
   {
      "index": 188,
      "country": "Pakistan",
      "city": "Karachi",
      "lat": 24.860735,
      "lng": 67.00114,
      "deans": [
         "Syed Nouman Hasany"
      ],
      "social_media": {
         "facebook": "https://www.facebook.com/groups/647517712291615"
      }
   },
   {
      "index": 189,
      "country": "Lithuania",
      "city": "Vilnius",
      "lat": 54.687157,
      "lng": 25.279652,
      "deans": [
         "Dovydas Čeilutka",
         "Povilas"
      ],
      "social_media": {
         "facebook": "https://www.facebook.com/groups/vilniusschoolofai",
         "meetup": "https://www.meetup.com/Vilnius-School-of-AI/"
      }
   },
   {
      "index": 191,
      "country": "Nepal",
      "city": "Kathmandu",
      "lat": 27.717245,
      "lng": 85.32396,
      "deans": [
         "Ashish Bhatt",
         "Manish Maharjan"
      ],
      "social_media": {
         "facebook": "https://www.https://www.facebook.com/groups/226523618054024/"
      }
   },
   {
      "index": 192,
      "country": "Mexico",
      "city": "Guadalajara",
      "lat": 20.659698,
      "lng": -103.34961,
      "deans": [
         "Luis Enrique Garcia Aguilera",
         "Araceli Medina"
      ],
      "social_media": {
         "meetup": "https://www.meetup.com/Guadalajara-School-of-AI/"
      }
   },
   {
      "index": 193,
      "country": "Mexico",
      "city": "Mexico City",
      "lat": 19.432608,
      "lng": -99.13321,
      "deans": [
         "Mario Adrian Cruz Espindola",
         "Eyal Schuller"
      ],
      "social_media": {
         "facebook": "https://www.facebook.com/groups/1965347220182362"
      }
   },
   {
      "index": 194,
      "country": "Mexico",
      "city": "Puebla",
      "lat": 19.04144,
      "lng": -98.206276,
      "deans": [
         "Jonathan Serrano Cuevas",
         "Pablo Lopez Helu"
      ],
      "social_media": {
         "facebook": "https://www.facebook.com/groups/230216814343207"
      }
   },
   {
      "index": 196,
      "country": "Mexico",
      "city": "Monterrey",
      "lat": 25.686615,
      "lng": -100.31612,
      "deans": [
         "Adalberto gonzalez ayala"
      ],
      "social_media": {
         "meetup": "https://www.meetup.com/es/School-of-AI-Monterrey"
      }
   },
   {
      "index": 198,
      "country": "Japan",
      "city": "Kochi",
      "lat": 33.559708,
      "lng": 133.53108,
      "deans": [
         "Aditya Ananthram"
      ],
      "social_media": {
         "facebook": "https://www.facebook.com/groups/919540048230453"
      }
   },
   {
      "index": 199,
      "country": "Russian Federation",
      "city": "Krasnoyarsk",
      "lat": 56.01528,
      "lng": 92.89325,
      "deans": [
         "Zakhar Pashkin"
      ],
      "social_media": {
         "facebook": "https://www.facebook.com/groups/505708419888049"
      }
   },
   {
      "index": 200,
      "country": "Malaysia",
      "city": "Kuala Lumpur",
      "lat": 3.139003,
      "lng": 101.68685,
      "deans": [
         "Imran Iskandar",
         "Purry Wijendra",
         "Irfan Noordin"
      ],
      "social_media": {
         "facebook": "https://www.facebook.com/groups/kualalumpurschoolofai"
      }
   },
   {
      "index": 201,
      "country": "Nigeria",
      "city": "Lagos",
      "lat": 6.5243793,
      "lng": 3.3792057,
      "deans": [
         "Oladejo Olajide"
      ],
      "social_media": {
         "facebook": "https://www.facebook.com/groups/221903238498426"
      }
   },
   {
      "index": 203,
      "country": "United Kingdom of Great Britain and Northern Ireland",
      "city": "Lancaster",
      "lat": 54.046574,
      "lng": -2.80074,
      "deans": [
         "Piotr Wiercinski"
      ],
      "social_media": {
         "facebook": "https://www.facebook.com/groups/305677753534182"
      }
   },
   {
      "index": 204,
      "country": "Netherlands",
      "city": "Amsterdam",
      "lat": 52.370216,
      "lng": 4.895168,
      "deans": [
         "Suzana Bašić",
         "Shasank Dave"
      ],
      "social_media": {
         "facebook": "https://www.facebook.com/groups/amsterdamai"
      }
   },
   {
      "index": 206,
      "country": "United States of America",
      "city": "Las Vegas",
      "lat": 36.16994,
      "lng": -115.13983,
      "deans": [
         "Anthony Marquette",
         "Colin Skow"
      ],
      "social_media": {
         "facebook": "https://www.facebook.com/groups/VegasAI",
         "meetup": "https://www.https://www.meetup.com/Las-Vegas-School-of-AI/"
      }
   },
   {
      "index": 207,
      "country": "Netherlands",
      "city": "Enschede",
      "lat": 52.22154,
      "lng": 6.893662,
      "deans": [
         "Ernests Elksnis",
         "Beril Sirmacek"
      ],
      "social_media": {
         "facebook": "https://www.facebook.com/groups/248971199158333"
      }
   },
   {
      "index": 208,
      "country": "Syrian Arab Republic",
      "city": "Latakia",
      "lat": 35.54071,
      "lng": 35.795265,
      "deans": [
         "Hasan Ghassan Dayoub",
         "Amjad Mahfoud"
      ],
      "social_media": {
         "facebook": "https://www.facebook.com/groups/1902169273227372/"
      }
   },
   {
      "index": 209,
      "country": "Switzerland",
      "city": "Lausanne",
      "lat": 46.519653,
      "lng": 6.632273,
      "deans": [
         "George Chogovadze"
      ],
      "social_media": {
         "facebook": "https://www.facebook.com/groups/283645769090944"
      }
   },
   {
      "index": 210,
      "country": "France",
      "city": "Le Mans",
      "lat": 48.00611,
      "lng": 0.199556,
      "deans": [
         "Vincent Porte"
      ],
      "social_media": {
         "meetup": "https://www.meetup.com/fr-FR/Le-Mans-School-of-AI"
      }
   },
   {
      "index": 211,
      "country": "United States of America",
      "city": "Leesburg",
      "lat": 39.11566,
      "lng": -77.5636,
      "deans": [
         "Sudha Mantri"
      ],
      "social_media": {
         "meetup": "https://www.meetup.com/Leesburg-School-of-AI/"
      }
   },
   {
      "index": 212,
      "country": "United Kingdom of Great Britain and Northern Ireland",
      "city": "London",
      "lat": 51.50735,
      "lng": -0.1277583,
      "deans": [
         "Riyan Moussaoui",
         "Ghida Ibrahim",
         "Ankita Vimal "
      ],
      "social_media": {
         "facebook": "https://www.facebook.com/groups/1803174519729953/"
      }
   },
   {
      "index": 214,
      "country": "Germany",
      "city": "Lübeck",
      "lat": 53.865467,
      "lng": 10.68656,
      "deans": [
         "Alex Divivi"
      ],
      "social_media": {
         "facebook": "https://www.facebook.com/groups/2109036949371017"
      }
   },
   {
      "index": 215,
      "country": "Zambia",
      "city": "Lusaka",
      "lat": -15.387526,
      "lng": 28.322817,
      "deans": [
         "Trevor Philip Majula"
      ],
      "social_media": {
         "facebook": "https://www.facebook.com/groups/1031386933690688"
      }
   },
   {
      "index": 216,
      "country": "France",
      "city": "Lyon",
      "lat": 45.76404,
      "lng": 4.835659,
      "deans": [
         "Jimmy BRUMANT"
      ],
      "social_media": {
         "facebook": "https://www.facebook.com/groups/1383042605195426"
      }
   },
   {
      "index": 217,
      "country": "Philippines",
      "city": "Makati",
      "lat": 14.554729,
      "lng": 121.024445,
      "deans": [
         "Mark Rode"
      ],
      "social_media": {
         "facebook": "https://www.facebook.com/groups/ManilaSchoolOfAI"
      }
   },
   {
      "index": 218,
      "country": "Spain",
      "city": "Málaga",
      "lat": 36.721275,
      "lng": -4.4213986,
      "deans": [
         "Carlos Morente Lozano",
         "Alfredo Robles Aragón"
      ],
      "social_media": {
         "meetup": "https://www.https://www.meetup.com/MalagaSchoolOfAI/"
      }
   },
   {
      "index": 219,
      "country": "Brazil",
      "city": "Manaus",
      "lat": -3.1190276,
      "lng": -60.021732,
      "deans": [
         "ALESSANDRE MARTINS"
      ],
      "social_media": {
         "facebook": "https://www.facebook.com/groups/maoschoolofai"
      }
   },
   {
      "index": 220,
      "country": "Venezuela (Bolivarian Republic of)",
      "city": "Maracaibo",
      "lat": 10.642707,
      "lng": -71.61253,
      "deans": [
         "gustavo cabezal"
      ],
      "social_media": {
         "facebook": "https://www.facebook.com/groups/1806153769502890"
      }
   },
   {
      "index": 221,
      "country": "Puerto Rico",
      "city": "Mayagüez",
      "lat": 18.201345,
      "lng": -67.14516,
      "deans": [
         "Jesús Denizard"
      ],
      "social_media": {
         "facebook": "https://www.facebook.com/groups/msaipr"
      }
   },
   {
      "index": 222,
      "country": "Iran (Islamic Republic of)",
      "city": "Mazandaran Or Sari",
      "lat": 36.565872,
      "lng": 53.05863,
      "deans": [
         "reza mahmoudi"
      ],
      "social_media": {
         "facebook": "www.https://www.facebook.com/groups/1867737809981523/"
      }
   },
   {
      "index": 223,
      "country": "India",
      "city": "Goa",
      "lat": 15.299327,
      "lng": 74.12399,
      "deans": [
         "Bikash Dash"
      ],
      "social_media": {
         "facebook": "https://www.facebook.com/groups/230377744329768"
      }
   },
   {
      "index": 224,
      "country": "Australia",
      "city": "Melbourne",
      "lat": -37.81363,
      "lng": 144.96306,
      "deans": [
         "Tanveer Bal",
         "Alessio Bonti"
      ],
      "social_media": {
         "meetup": "https://www.meetup.com/Melbourne-School-of-AI/"
      }
   },
   {
      "index": 225,
      "country": "United States of America",
      "city": "Memphis",
      "lat": 35.149536,
      "lng": -90.04898,
      "deans": [
         "Valter Heger"
      ],
      "social_media": {
         "facebook": "https://www.facebook.com/groups/1676417215820744"
      }
   },
   {
      "index": 226,
      "country": "Italy",
      "city": "Milano",
      "lat": 45.464203,
      "lng": 9.189982,
      "deans": [
         "Sefa Oguz Saglam"
      ],
      "social_media": {
         "facebook": "https://www.facebook.com/groups/2125185790887697"
      }
   },
   {
      "index": 227,
      "country": "United States of America",
      "city": "Minneapolis",
      "lat": 44.977753,
      "lng": -93.26501,
      "deans": [
         "Theresa Thoraldson"
      ],
      "social_media": {
         "meetup": "https://www.meetup.com/Minneapolis-School-of-AI/"
      }
   },
   {
      "index": 228,
      "country": "United States of America",
      "city": "Minneapolis",
      "lat": 44.977753,
      "lng": -93.26501,
      "deans": [
         "Mohamed Hassan"
      ],
      "social_media": null
   },
   {
      "index": 229,
      "country": "France",
      "city": "Montpellier",
      "lat": 43.610767,
      "lng": 3.876716,
      "deans": [
         "Lemonnier Nils"
      ],
      "social_media": {
         "facebook": "https://www.facebook.com/groups/1912449345726893"
      }
   },
   {
      "index": 230,
      "country": "Portugal",
      "city": "Lisbon",
      "lat": 38.72225,
      "lng": -9.139337,
      "deans": [
         "André Oliveira",
         "Carlos Eduardo Vilaça Milheiro"
      ],
      "social_media": {
         "facebook": "https://www.facebook.com/groups/LxSchoolOfAI"
      }
   },
   {
      "index": 231,
      "country": "Portugal",
      "city": "Lisbon",
      "lat": 38.72225,
      "lng": -9.139337,
      "deans": [
         "Carlos Eduardo Vilaça Milheiro",
         "André Oliveira"
      ],
      "social_media": {
         "facebook": "https://www.facebook.com/groups/LxSchoolOfAI"
      }
   },
   {
      "index": 232,
      "country": "Russian Federation",
      "city": "Moscow",
      "lat": 55.755825,
      "lng": 37.6173,
      "deans": [
         "Ruslan Miftakhov",
         "Pavel Pleskov"
      ],
      "social_media": {
         "facebook": "https://www.facebook.com/groups/261939584528805",
         "meetup": "https://www.meetup.com/Moscow-School-of-AI/"
      }
   },
   {
      "index": 233,
      "country": "Germany",
      "city": "Munich",
      "lat": 48.135124,
      "lng": 11.581981,
      "deans": [
         "Ishmeet Kaur"
      ],
      "social_media": {
         "facebook": "https://www.facebook.com/groups/316494025765420"
      }
   },
   {
      "index": 234,
      "country": "Germany",
      "city": "Munich",
      "lat": 48.135124,
      "lng": 11.581981,
      "deans": [
         "Anant Nawalgaria"
      ],
      "social_media": {
         "facebook": "https://www.facebook.com/groups/316494025765420"
      }
   },
   {
      "index": 235,
      "country": "Germany",
      "city": "Münster",
      "lat": 51.960667,
      "lng": 7.626135,
      "deans": [
         "Tim Hahn"
      ],
      "social_media": null
   },
   {
      "index": 236,
      "country": "Zimbabwe",
      "city": "Mutare",
      "lat": -18.97577,
      "lng": 32.650352,
      "deans": [
         "James Singizi"
      ],
      "social_media": {
         "facebook": "https://www.facebook.com/groups/1101361070002709"
      }
   },
   {
      "index": 237,
      "country": "Kenya",
      "city": "Nairobi",
      "lat": -1.2920659,
      "lng": 36.821945,
      "deans": [
         "Brian Kimani"
      ],
      "social_media": {
         "meetup": "https://www.meetup.com/nairobi-school-of-ai/"
      }
   },
   {
      "index": 238,
      "country": "United States of America",
      "city": "New York City",
      "lat": 40.712776,
      "lng": -74.005974,
      "deans": [
         "Aniruddha Murali"
      ],
      "social_media": {
         "facebook": "https://www.facebook.com/groups/252863312008553/"
      }
   },
   {
      "index": 239,
      "country": "Serbia",
      "city": "Niš",
      "lat": 43.320904,
      "lng": 21.89576,
      "deans": [
         "Adam Radivojević"
      ],
      "social_media": {
         "facebook": "https://www.facebook.com/groups/NIS.schoolofai"
      }
   },
   {
      "index": 240,
      "country": "United States of America",
      "city": "Orlando",
      "lat": 28.538336,
      "lng": -81.379234,
      "deans": [
         "John Muchovej"
      ],
      "social_media": {
         "facebook": "https://www.facebook.com/groups/schoolofai.orlando"
      }
   },
   {
      "index": 241,
      "country": "Sweden",
      "city": "Stockholm",
      "lat": 59.329323,
      "lng": 18.06858,
      "deans": [
         "Syed Awais Ahmad"
      ],
      "social_media": {
         "facebook": "https://www.facebook.com/groups/226462374687185"
      }
   },
   {
      "index": 242,
      "country": "Norway",
      "city": "Oslo",
      "lat": 59.913868,
      "lng": 10.752245,
      "deans": [
         "Kelvin Sundli",
         "Henrik Larsen"
      ],
      "social_media": {
         "facebook": "https://www.facebook.com/groups/osloSchoolOfAI"
      }
   },
   {
      "index": 243,
      "country": "United States Minor Outlying Islands",
      "city": "Owasso",
      "lat": 37.09024,
      "lng": -95.71289,
      "deans": [
         "Daniel B Looper"
      ],
      "social_media": {
         "facebook": "https://www.facebook.com/groups/owassoschoolofai"
      }
   },
   {
      "index": 245,
      "country": "Malaysia",
      "city": "Penang",
      "lat": 5.4163933,
      "lng": 100.33268,
      "deans": [
         "Chan Zhen Yu",
         "Hari Krishnan "
      ],
      "social_media": {
         "facebook": "https://www.facebook.com/groups/penangschoolofai"
      }
   },
   {
      "index": 246,
      "country": "Malaysia",
      "city": "Petaling Jaya",
      "lat": 3.127887,
      "lng": 101.59449,
      "deans": [
         "Abdul Hakeem Narayanan"
      ],
      "social_media": {
         "facebook": "https://www.facebook.com/groups/kualalumpurschoolofai"
      }
   },
   {
      "index": 247,
      "country": "Tunisia",
      "city": "Sousse",
      "lat": 35.8245,
      "lng": 10.634584,
      "deans": [
         "Amine Ben Ali"
      ],
      "social_media": {
         "facebook": "https://www.facebook.com/groups/TunisiaSchoolofAI"
      }
   },
   {
      "index": 248,
      "country": "Tunisia",
      "city": "Tunis",
      "lat": 36.806496,
      "lng": 10.181532,
      "deans": [
         "Zied khayechi",
         "Khalil Nouili"
      ],
      "social_media": {
         "facebook": "https://www.facebook.com/groups/2179189759031619"
      }
   },
   {
      "index": 249,
      "country": "United States of America",
      "city": "Philadelphia",
      "lat": 39.952583,
      "lng": -75.16522,
      "deans": [
         "Harris Levine"
      ],
      "social_media": {
         "facebook": "https://www.facebook.com/groups/250530298906131",
         "meetup": "https://www.meetup.com/Philadelphia-School-of-AI/"
      }
   },
   {
      "index": 251,
      "country": "Montenegro",
      "city": "Podgorica",
      "lat": 42.43042,
      "lng": 19.259365,
      "deans": [
         "Djordje Dajkovic"
      ],
      "social_media": {
         "facebook": "https://www.facebook.com/groups/856081987924693"
      }
   },
   {
      "index": 252,
      "country": "Nepal",
      "city": "Pokhara",
      "lat": 28.237988,
      "lng": 83.99559,
      "deans": [
         "Pradip Dhakal"
      ],
      "social_media": null
   },
   {
      "index": 253,
      "country": "United States of America",
      "city": "Pomona",
      "lat": 34.055103,
      "lng": -117.74999,
      "deans": [
         "Angel Jimenez"
      ],
      "social_media": {
         "facebook": "https://www.facebook.com/groups/1916074678452902"
      }
   },
   {
      "index": 254,
      "country": "United States of America",
      "city": "Pompano Beach",
      "lat": 26.23786,
      "lng": -80.12476,
      "deans": [
         "Slavo Popovic"
      ],
      "social_media": null
   },
   {
      "index": 255,
      "country": "Nigeria",
      "city": "Port Harcourt City",
      "lat": 4.815554,
      "lng": 7.0498443,
      "deans": [
         "Stephen Oladele"
      ],
      "social_media": {
         "facebook": "https://www.facebook.com/groups/1890697607893147"
      }
   },
   {
      "index": 256,
      "country": "United States of America",
      "city": "Portland",
      "lat": 45.51223,
      "lng": -122.65872,
      "deans": [
         "Jess Stahl",
         "Manny Acevedo"
      ],
      "social_media": {
         "facebook": "https://www.facebook.com/groups/1953363764964574",
         "meetup": "https://www.meetup.com/Portland-School-of-AI/"
      }
   },
   {
      "index": 257,
      "country": "Brazil",
      "city": "Porto Alegre",
      "lat": -30.034647,
      "lng": -51.21766,
      "deans": [
         "Alessandro Cauduro"
      ],
      "social_media": null
   },
   {
      "index": 258,
      "country": "Poland",
      "city": "Poznań",
      "lat": 52.406376,
      "lng": 16.925169,
      "deans": [
         "Bartosz Mikulski"
      ],
      "social_media": {
         "facebook": "https://www.facebook.com/groups/poznanschoolofai",
         "meetup": "https://www.meetup.com/Poznan-School-of-AI"
      }
   },
   {
      "index": 259,
      "country": "Switzerland",
      "city": "Geneva",
      "lat": 46.20439,
      "lng": 6.1431575,
      "deans": [
         "Tatsu Ilya"
      ],
      "social_media": {
         "meetup": "https://www.https://www.meetup.com/Geneve-School-of-AI/"
      }
   },
   {
      "index": 260,
      "country": "South Africa",
      "city": "Pretoria",
      "lat": -25.747868,
      "lng": 28.22927,
      "deans": [
         "Thabo Mahlangu"
      ],
      "social_media": {
         "facebook": "https://www.facebook.com/groups/1763988780363988"
      }
   },
   {
      "index": 261,
      "country": "United States of America",
      "city": "Princeton",
      "lat": 40.357296,
      "lng": -74.66722,
      "deans": [
         "Vinicius Pantoja",
         "Kashyap Murali"
      ],
      "social_media": {
         "meetup": "https://www.meetup.com/Princeton-School-of-AI/"
      }
   },
   {
      "index": 262,
      "country": "United States of America",
      "city": "Provo",
      "lat": 40.233845,
      "lng": -111.65853,
      "deans": [
         "Jayden William Stuver"
      ],
      "social_media": {
         "facebook": "https://www.facebook.com/groups/309588109617474"
      }
   },
   {
      "index": 263,
      "country": "Peru",
      "city": "Puno",
      "lat": -15.840221,
      "lng": -70.02188,
      "deans": [
         "Wilder Andeson Gutierrez Quispe"
      ],
      "social_media": {
         "facebook": "https://www.facebook.com/groups/681568348908647"
      }
   },
   {
      "index": 264,
      "country": "Philippines",
      "city": "Quezon City",
      "lat": 14.676042,
      "lng": 121.0437,
      "deans": [
         "Elmer C. Peramo"
      ],
      "social_media": {
         "facebook": "https://www.facebook.com/groups/2216296111986044"
      }
   },
   {
      "index": 265,
      "country": "Ecuador",
      "city": "Quito",
      "lat": -0.1806532,
      "lng": -78.467834,
      "deans": [
         "Jorge Cañizares"
      ],
      "social_media": {
         "facebook": "https://www.facebook.com/groups/261376047806170"
      }
   },
   {
      "index": 266,
      "country": "Morocco",
      "city": "Rabat",
      "lat": 33.971592,
      "lng": -6.849813,
      "deans": [
         "Ichrak Lafram"
      ],
      "social_media": {
         "facebook": "https://www.facebook.com/groups/260496194785430"
      }
   },
   {
      "index": 267,
      "country": "United States of America",
      "city": "Raleigh",
      "lat": 35.77959,
      "lng": -78.638176,
      "deans": [
         "Jubeen Shah"
      ],
      "social_media": {
         "facebook": "https://www.facebook.com/groups/815556825500875"
      }
   },
   {
      "index": 268,
      "country": "Iran (Islamic Republic of)",
      "city": "Rasht",
      "lat": 37.26822,
      "lng": 49.589123,
      "deans": [
         "Erfan Miahi"
      ],
      "social_media": {
         "facebook": "https://www.facebook.com/groups/RashtSchoolOfAi"
      }
   },
   {
      "index": 269,
      "country": "Canada",
      "city": "Regina",
      "lat": 50.44521,
      "lng": -104.6189,
      "deans": [
         "John Hashem"
      ],
      "social_media": {
         "facebook": "https://www.facebook.com/groups/21200480625138..."
      }
   },
   {
      "index": 270,
      "country": "Brazil",
      "city": "Ribeirão Preto",
      "lat": -21.1704,
      "lng": -47.810326,
      "deans": [
         "Danilo Renato da Silva"
      ],
      "social_media": {
         "facebook": "https://www.facebook.com/groups/257599328189458"
      }
   },
   {
      "index": 271,
      "country": "United States of America",
      "city": "Richmond",
      "lat": 37.540726,
      "lng": -77.43605,
      "deans": [
         "Adam Eubanks",
         "Harshal Nallapareddy"
      ],
      "social_media": {
         "facebook": "https://www.facebook.com/groups/278182822984264"
      }
   },
   {
      "index": 272,
      "country": "Netherlands",
      "city": "Rotterdam",
      "lat": 51.92442,
      "lng": 4.4777327,
      "deans": [
         "Bernardo Marques"
      ],
      "social_media": {
         "meetup": "https://www.meetup.com/Rotterdam-School-of-AI/"
      }
   },
   {
      "index": 273,
      "country": "United States of America",
      "city": "Saint Louis",
      "lat": 38.627003,
      "lng": -90.1994,
      "deans": [
         "Vijaybhasker Pagidoju"
      ],
      "social_media": {
         "meetup": "https://www.meetup.com/SaintLouisSchoolofAI/"
      }
   },
   {
      "index": 274,
      "country": "United States of America",
      "city": "San Diego",
      "lat": 32.715736,
      "lng": -117.16109,
      "deans": [
         "Ribhu Lahiri"
      ],
      "social_media": {
         "facebook": "https://www.https://www.facebook.com/groups/1820586374697383/",
         "meetup": "https://www.https://www.meetup.com/school-of-ai-san-diego/"
      }
   },
   {
      "index": 275,
      "country": "United States of America",
      "city": "San Francisco",
      "lat": 37.77493,
      "lng": -122.41942,
      "deans": [
         "Sergii Garkusha",
         "Carson Bentley"
      ],
      "social_media": {
         "meetup": "https://www.meetup.com/san-francisco-school-of-ai"
      }
   },
   {
      "index": 276,
      "country": "United States of America",
      "city": "San Jose",
      "lat": 37.338207,
      "lng": -121.88633,
      "deans": [
         "Shiva Gopalan"
      ],
      "social_media": {
         "facebook": "https://www.facebook.com/groups/466448313833215",
         "meetup": "https://www.https://www.meetup.com/San-Jose-School-of-AI/"
      }
   },
   {
      "index": 277,
      "country": "United States of America",
      "city": "Santa Clara",
      "lat": 37.354107,
      "lng": -121.95524,
      "deans": [
         "Rohit Gupta"
      ],
      "social_media": null
   },
   {
      "index": 278,
      "country": "Brazil",
      "city": "São José Dos Campos",
      "lat": -23.223701,
      "lng": -45.900906,
      "deans": [
         "Andre Luiz Emidio Junior"
      ],
      "social_media": {
         "facebook": "https://www.facebook.com/groups/1155902067896596"
      }
   },
   {
      "index": 279,
      "country": "Brazil",
      "city": "São Paulo",
      "lat": -23.55052,
      "lng": -46.63331,
      "deans": [
         "Cleyton Messias"
      ],
      "social_media": {
         "facebook": "https://www.facebook.com/groups/spschoolofai"
      }
   },
   {
      "index": 280,
      "country": "Brazil",
      "city": "São Paulo",
      "lat": -23.55052,
      "lng": -46.63331,
      "deans": [
         "Flávio Grassi"
      ],
      "social_media": {
         "facebook": "https://www.facebook.com/groups/spschoolofai"
      }
   },
   {
      "index": 281,
      "country": "Bosnia and Herzegovina",
      "city": "Sarajevo",
      "lat": 43.85626,
      "lng": 18.413076,
      "deans": [
         "Faik Catibusic"
      ],
      "social_media": {
         "facebook": "https://www.facebook.com/groups/517854281998830"
      }
   },
   {
      "index": 283,
      "country": "Korea (Republic of)",
      "city": "Seoul",
      "lat": 37.566536,
      "lng": 126.97797,
      "deans": [
         "Tae-hoon, Koo (Kurt/구태훈)"
      ],
      "social_media": {
         "facebook": "https://www.facebook.com/groups/seoulschoolofai",
         "meetup": "https://www.meetup.com/seoul-school-of-ai"
      }
   },
   {
      "index": 284,
      "country": "Singapore",
      "city": "Singapore",
      "lat": 1.352083,
      "lng": 103.81984,
      "deans": [
         "Sunil Thakur",
         "Andreas Sujono",
         "Bala Prasanna"
      ],
      "social_media": {
         "facebook": "https://www.https://www.facebook.com/groups/2231906417039626"
      }
   },
   {
      "index": 285,
      "country": "Trinidad and Tobago",
      "city": "St. Augustine",
      "lat": 10.647341,
      "lng": -61.399776,
      "deans": [
         "Sergio Mathurin"
      ],
      "social_media": {
         "facebook": "https://www.facebook.com/groups/1914668508626262"
      }
   },
   {
      "index": 286,
      "country": "Sweden",
      "city": "Stockholm",
      "lat": 59.329323,
      "lng": 18.06858,
      "deans": [
         "Ola Cornelius"
      ],
      "social_media": {
         "facebook": "https://www.facebook.com/groups/1462893550509622"
      }
   },
   {
      "index": 287,
      "country": "Germany",
      "city": "Stuttgart",
      "lat": 48.775845,
      "lng": 9.182932,
      "deans": [
         "Yusun Liu"
      ],
      "social_media": {
         "facebook": "https://www.facebook.com/groups/2070293823028402"
      }
   },
   {
      "index": 288,
      "country": "Fiji",
      "city": "Suva",
      "lat": -18.12481,
      "lng": 178.45007,
      "deans": [
         "Wafaa Wardah"
      ],
      "social_media": {
         "facebook": "https://www.facebook.com/groups/school.of.ai.s..."
      }
   },
   {
      "index": 289,
      "country": "United States Minor Outlying Islands",
      "city": "Tacoma",
      "lat": 37.09024,
      "lng": -95.71289,
      "deans": [
         "DJ Porter"
      ],
      "social_media": null
   },
   {
      "index": 290,
      "country": "United States of America",
      "city": "Tallahassee",
      "lat": 30.438255,
      "lng": -84.28073,
      "deans": [
         "Brandon Cote"
      ],
      "social_media": {
         "facebook": "https://www.facebook.com/groups/2001472400163525"
      }
   },
   {
      "index": 291,
      "country": "Russian Federation",
      "city": "Tambov",
      "lat": 52.7236,
      "lng": 41.442307,
      "deans": [
         "Danila Perepechin"
      ],
      "social_media": {
         "facebook": "https://www.facebook.com/groups/2228881227368569"
      }
   },
   {
      "index": 292,
      "country": "United States of America",
      "city": "Tampa",
      "lat": 27.950575,
      "lng": -82.45718,
      "deans": [
         "Jimmy Murray"
      ],
      "social_media": {
         "facebook": "https://www.facebook.com/groups/school.of.ai.tampa",
         "meetup": "https://www.https://www.meetup.com/School-of-AI-Tampa/"
      }
   },
   {
      "index": 293,
      "country": "Uruguay",
      "city": "Montevideo",
      "lat": -34.90111,
      "lng": -56.16453,
      "deans": [
         "Rodrigo Beceiro"
      ],
      "social_media": {
         "facebook": "https://www.https://www.facebook.com/groups/shoolofaimvd/"
      }
   },
   {
      "index": 294,
      "country": "Estonia",
      "city": "Tartu",
      "lat": 58.377983,
      "lng": 26.729038,
      "deans": [
         "Jaan Olev"
      ],
      "social_media": {
         "meetup": "https://www.meetup.com/Tartu-School-of-AI-Meetup/"
      }
   },
   {
      "index": 295,
      "country": "Georgia",
      "city": "Tbilisi",
      "lat": 41.715137,
      "lng": 44.827095,
      "deans": [
         "Ioseb Khutsishvili"
      ],
      "social_media": {
         "meetup": "https://www.meetup.com/Tbilisi-School-of-AI/"
      }
   },
   {
      "index": 296,
      "country": "Honduras",
      "city": "Tegucigalpa",
      "lat": 14.072275,
      "lng": -87.19214,
      "deans": [
         "Nestor Ramón Escoto Padilla"
      ],
      "social_media": {
         "facebook": "https://www.facebook.com/groups/aitegucigalpa"
      }
   },
   {
      "index": 297,
      "country": "Iran (Islamic Republic of)",
      "city": "Tehran",
      "lat": 35.689198,
      "lng": 51.388973,
      "deans": [
         "Hamidreza Hosseinkhani"
      ],
      "social_media": null
   },
   {
      "index": 298,
      "country": "Israel",
      "city": "Tel Aviv",
      "lat": 32.0853,
      "lng": 34.78177,
      "deans": [
         "Ron Weiner"
      ],
      "social_media": {
         "meetup": "https://www.meetup.com/Tel-Aviv-School-of-AI/"
      }
   },
   {
      "index": 299,
      "country": "Germany",
      "city": "Kleve",
      "lat": 51.786728,
      "lng": 6.12954,
      "deans": [
         "Arunjoy Banerjee"
      ],
      "social_media": {
         "facebook": "https://www.facebook.com/groups/90522637300256..."
      }
   },
   {
      "index": 300,
      "country": "Japan",
      "city": "Tokyo",
      "lat": 35.689487,
      "lng": 139.69171,
      "deans": [
         "Yunbum Choi"
      ],
      "social_media": {
         "facebook": "https://www.facebook.com/groups/tokyo.SchoolOfAI"
      }
   },
   {
      "index": 301,
      "country": "Venezuela (Bolivarian Republic of)",
      "city": "Caracas",
      "lat": 10.480594,
      "lng": -66.9036,
      "deans": [
         "Antonio Rueda-Toicen",
         "Elieser Pereira"
      ],
      "social_media": {
         "facebook": "https://www.facebook.com/groups/school.of.ai.caracas"
      }
   },
   {
      "index": 302,
      "country": "Japan",
      "city": "Tokyo",
      "lat": 35.689487,
      "lng": 139.69171,
      "deans": [
         "Keita Mimura"
      ],
      "social_media": {
         "facebook": "https://www.facebook.com/groups/tokyo.SchoolOfAI"
      }
   },
   {
      "index": 303,
      "country": "France",
      "city": "Toulon",
      "lat": 43.12423,
      "lng": 5.928,
      "deans": [
         "Bastien Chapuis"
      ],
      "social_media": {
         "facebook": "https://www.facebook.com/groups/1623958224392622"
      }
   },
   {
      "index": 304,
      "country": "France",
      "city": "Toulouse",
      "lat": 43.604652,
      "lng": 1.444209,
      "deans": [
         "ALI KORSI"
      ],
      "social_media": {
         "facebook": "https://www.facebook.com/groups/673351983035675"
      }
   },
   {
      "index": 305,
      "country": "Germany",
      "city": "Trier",
      "lat": 49.749992,
      "lng": 6.637143,
      "deans": [
         "Premtim Sahitaj"
      ],
      "social_media": {
         "meetup": "https://www.meetup.com/Trier-School-of-AI/"
      }
   },
   {
      "index": 306,
      "country": "Norway",
      "city": "Tromsø",
      "lat": 69.64921,
      "lng": 18.955324,
      "deans": [
         "Stein Roar Dahl"
      ],
      "social_media": {
         "meetup": "https://www.meetup.com/School-of-AI-Tromso/"
      }
   },
   {
      "index": 307,
      "country": "Iran (Islamic Republic of)",
      "city": "Urmia",
      "lat": 37.549805,
      "lng": 45.07863,
      "deans": [
         "Sobhan Haggi"
      ],
      "social_media": {
         "facebook": "https://www.facebook.com/groups/314774005758723"
      }
   },
   {
      "index": 308,
      "country": "Netherlands",
      "city": "Utrecht",
      "lat": 52.090736,
      "lng": 5.12142,
      "deans": [
         "Mariya Hendriksen",
         "Wilder Rodrigues",
         "Deepan Ignaatious"
      ],
      "social_media": {
         "meetup": "https://www.meetup.com/Utrecht-School-of-AI/"
      }
   },
   {
      "index": 310,
      "country": "Spain",
      "city": "Valencia",
      "lat": 39.469906,
      "lng": -0.3762881,
      "deans": [
         "Juan Eslem Alzate Zabala"
      ],
      "social_media": {
         "facebook": "https://www.facebook.com/groups/302152843664687"
      }
   },
   {
      "index": 311,
      "country": "Germany",
      "city": "Vallendar",
      "lat": 50.397137,
      "lng": 7.622022,
      "deans": [
         "Leander Märkisch"
      ],
      "social_media": {
         "facebook": "https://www.facebook.com/groups/298298054263873"
      }
   },
   {
      "index": 312,
      "country": "Mauritius",
      "city": "Ebene",
      "lat": -20.241892,
      "lng": 57.4896,
      "deans": [
         "Manish Chumun"
      ],
      "social_media": {
         "facebook": "https://www.facebook.com/groups/700051080343369/"
      }
   },
   {
      "index": 313,
      "country": "Canada",
      "city": "Vaughan",
      "lat": 43.837208,
      "lng": -79.50828,
      "deans": [
         "Nikita Varabei"
      ],
      "social_media": {
         "facebook": "https://www.facebook.com/groups/2137833136478905",
         "meetup": "https://www.meetup.com/Vaughan-School-of-AI"
      }
   },
   {
      "index": 314,
      "country": "Tunisia",
      "city": "Sousse",
      "lat": 35.8245,
      "lng": 10.634584,
      "deans": [
         "Zied khayechi",
         "Khalil Nouili"
      ],
      "social_media": {
         "facebook": "https://www.facebook.com/groups/2179189759031619"
      }
   },
   {
      "index": 315,
      "country": "Tunisia",
      "city": "Sfax",
      "lat": 34.739822,
      "lng": 10.760019,
      "deans": [
         "Zied khayechi",
         "Khalil Nouili"
      ],
      "social_media": {
         "facebook": "https://www.facebook.com/groups/2179189759031619"
      }
   },
   {
      "index": 316,
      "country": "Italy",
      "city": "Verona",
      "lat": 45.438618,
      "lng": 10.993313,
      "deans": [
         "Cesare Montresor"
      ],
      "social_media": {
         "meetup": "https://www.meetup.com/Verona-School-of-AI/"
      }
   },
   {
      "index": 317,
      "country": "Colombia",
      "city": "Medellin",
      "lat": 6.244203,
      "lng": -75.581215,
      "deans": [
         "David Cardozo"
      ],
      "social_media": {
         "facebook": "https://www.https://www.facebook.com/groups/1766056600304468/"
      }
   },
   {
      "index": 318,
      "country": "India",
      "city": "Srinagar",
      "lat": 34.08367,
      "lng": 74.79728,
      "deans": [
         "Abhinandan Dogra"
      ],
      "social_media": null
   },
   {
      "index": 319,
      "country": "Hungary",
      "city": "Veszprem",
      "lat": 47.10281,
      "lng": 17.909302,
      "deans": [
         "Tibor Ormosi"
      ],
      "social_media": {
         "meetup": "https://www.meetup.com/Veszprem-Sch­ool-of-AI/"
      }
   },
   {
      "index": 320,
      "country": "Austria",
      "city": "Vienna",
      "lat": 48.208176,
      "lng": 16.37382,
      "deans": [
         "Jacobs Edo",
         "Vlad Petrea"
      ],
      "social_media": {
         "facebook": "https://www.facebook.com/groups/269360847194260",
         "meetup": "https://www.https://www.meetup.com/Vienna-School-of-AI"
      }
   },
   {
      "index": 321,
      "country": "Poland",
      "city": "Warszawa",
      "lat": 52.229675,
      "lng": 21.012228,
      "deans": [
         "Marcin Ryszard Kraszewski"
      ],
      "social_media": {
         "facebook": "https://www.facebook.com/groups/2114717511885657"
      }
   },
   {
      "index": 322,
      "country": "India",
      "city": "Patiala",
      "lat": 30.33978,
      "lng": 76.38688,
      "deans": [
         "Dheeraj Mittal"
      ],
      "social_media": {
         "facebook": "https://www.https://www.facebook.com/groups/297385907737239/"
      }
   },
   {
      "index": 323,
      "country": "United States of America",
      "city": "Winchester",
      "lat": 39.18566,
      "lng": -78.16334,
      "deans": [
         "Lloyd Clark"
      ],
      "social_media": null
   },
   {
      "index": 324,
      "country": "India",
      "city": "Chandigarh",
      "lat": 30.733315,
      "lng": 76.77942,
      "deans": [
         "Ajay kumar"
      ],
      "social_media": {
         "facebook": "https://www.https://www.facebook.com/groups/ChandigarhSchoolOfAI/"
      }
   },
   {
      "index": 325,
      "country": "Armenia",
      "city": "Yerevan",
      "lat": 40.179184,
      "lng": 44.499104,
      "deans": [
         "Mels Hakobyan"
      ],
      "social_media": {
         "facebook": "https://www.facebook.com/groups/1254063191416662"
      }
   },
   {
      "index": 326,
      "country": "India",
      "city": "Jharkhand",
      "lat": 23.61018,
      "lng": 85.27994,
      "deans": [
         "Navneet Kumar"
      ],
      "social_media": {
         "facebook": "https://www.facebook.com/groups/711356705868697"
      }
   },
   {
      "index": 327,
      "country": "Switzerland",
      "city": "Geneva",
      "lat": 46.20439,
      "lng": 6.1431575,
      "deans": [
         "Charles Malafosse",
         "Tatsu Ilya"
      ],
      "social_media": {
         "meetup": "https://www.https://www.meetup.com/Geneve-School-of-AI/"
      }
   },
   {
      "index": 328,
      "country": "South Africa",
      "city": "Johannesburg",
      "lat": -26.204103,
      "lng": 28.047304,
      "deans": [
         "Jean-Pierre Pitout",
         "Yattish Ramhorry"
      ],
      "social_media": {
         "facebook": "https://www.https://www.facebook.com/groups/1849175041814791/"
      }
   },
   {
      "index": 329,
      "country": "Switzerland",
      "city": "Zurich",
      "lat": 47.37689,
      "lng": 8.541694,
      "deans": [
         "Dmitri Paley",
         "Francisco Ramos"
      ],
      "social_media": {
         "facebook": "https://www.facebook.com/groups/913190355555507"
      }
   },
   {
      "index": 332,
      "country": "Greece",
      "city": "Thessaloniki",
      "lat": 40.640064,
      "lng": 22.94442,
      "deans": [
         "Leo Blousi"
      ],
      "social_media": {
         "facebook": "https://www.https://www.facebook.com/groups/544838352614020/"
      }
   },
   {
      "index": 334,
      "country": "Peru",
      "city": "Lima",
      "lat": -12.046373,
      "lng": -77.042755,
      "deans": [
         "Rodrigo Hernández",
         "Jesús Huaycochea"
      ],
      "social_media": {
         "facebook": "https://www.https://www.facebook.com/groups/281526422645244/"
      }
   },
   {
      "index": 336,
      "country": "Philippines",
      "city": "Cebu",
      "lat": 10.607936,
      "lng": 123.88577,
      "deans": [
         "Jerel John Velarde"
      ],
      "social_media": {
         "facebook": "https://www.https://www.facebook.com/groups/541734212942499/"
      }
   },
   {
      "index": 337,
      "country": "United States of America",
      "city": "Irvine",
      "lat": 33.684566,
      "lng": -117.82651,
      "deans": [
         "Gautam Karmakar"
      ],
      "social_media": {
         "facebook": "https://www.https://www.facebook.com/groups/839604392844670/?ref=bookmarks"
      }
   },
   {
      "index": 339,
      "country": "United States of America",
      "city": "Kihei ",
      "lat": 20.764427,
      "lng": -156.445,
      "deans": [
         "Ryan McCoy"
      ],
      "social_media": {
         "facebook": "https://www.https://www.meetup.com/MauiSchoolofAI/"
      }
   },
   {
      "index": 340,
      "country": "Indonesia",
      "city": "Bandung",
      "lat": -6.917464,
      "lng": 107.619125,
      "deans": [
         "Hidayaturrahman"
      ],
      "social_media": {
         "facebook": "https://www.https://www.facebook.com/groups/230707224301661/"
      }
   },
   {
      "index": 342,
      "country": "United States of America",
      "city": "Winchester",
      "lat": 39.18566,
      "lng": -78.16334,
      "deans": [
         "Lloyd Clark"
      ],
      "social_media": {
         "facebook": "https://www.https://www.facebook.com/groups/1749618838685711/"
      }
   },
   {
      "index": 344,
      "country": "Germany",
      "city": "Ilmenau",
      "lat": 50.68435,
      "lng": 10.925473,
      "deans": [
         "Mario Schroeder"
      ],
      "social_media": {
         "facebook": "https://www.https://www.facebook.com/groups/1967306339958567/"
      }
   },
   {
      "index": 345,
      "country": "India",
      "city": "Gwalior",
      "lat": 26.218287,
      "lng": 78.18283,
      "deans": [
         "Atul Anand",
         "Harsh Shrivastava"
      ],
      "social_media": {
         "facebook": "https://www.https://www.facebook.com/groups/317541345655958/"
      }
   },
   {
      "index": 346,
      "country": "Netherlands",
      "city": "Hengelo",
      "lat": 52.257412,
      "lng": 6.7927723,
      "deans": [
         "Beril Sirmacek"
      ],
      "social_media": {
         "facebook": "https://www.https://www.facebook.com/groups/school.of.ai.east.nl/"
      }
   },
   {
      "index": 347,
      "country": "Netherlands",
      "city": "Rijssen",
      "lat": 52.30817,
      "lng": 6.5213494,
      "deans": [
         "Leon ten Brinke"
      ],
      "social_media": null
   },
   {
      "index": 348,
      "country": "Mexico",
      "city": "Ciudad Juarez",
      "lat": 31.690363,
      "lng": -106.424545,
      "deans": [
         "Francisco Rivera",
         "Ramses Salinas"
      ],
      "social_media": {
         "facebook": "https://www.https://www.facebook.com/groups/CdJuarezSchoolofAI/"
      }
   },
   {
      "index": 349,
      "country": "United States of America",
      "city": "Miami",
      "lat": 25.76168,
      "lng": -80.19179,
      "deans": [
         "Karan Kyanam",
         "Deepen Panchal"
      ],
      "social_media": {
         "facebook": "https://www.https://www.facebook.com/groups/244710836371806/",
         "meetup": "https://www.https://www.meetup.com/miami-data-science-blockchain-fort-lauderdale/"
      }
   },
   {
      "index": 350,
      "country": "United States of America",
      "city": "Nashville",
      "lat": 36.162663,
      "lng": -86.7816,
      "deans": [
         "Jeff Wolski"
      ],
      "social_media": {
         "facebook": "https://www.https://www.facebook.com/groups/NashvilleSchoolOfAI"
      }
   },
   {
      "index": 351,
      "country": "Iran (Islamic Republic of)",
      "city": "Tehran",
      "lat": 35.689198,
      "lng": 51.388973,
      "deans": [
         "Hoda Fakharzadeh"
      ],
      "social_media": null
   },
   {
      "index": 352,
      "country": "Pakistan",
      "city": "Faisalabad",
      "lat": 31.450367,
      "lng": 73.134964,
      "deans": [
         "M. Junaid Fiaz"
      ],
      "social_media": {
         "facebook": "https://www.https://www.facebook.com/groups/fsd.schoolofai/"
      }
   },
   {
      "index": 353,
      "country": "Netherlands",
      "city": "The Hague",
      "lat": 52.0705,
      "lng": 4.3006997,
      "deans": [
         "Bozhidar \"Bobby\" Bahov"
      ],
      "social_media": {
         "meetup": "https://www.https://www.meetup.com/AI-Lab/"
      }
   },
   {
      "index": 355,
      "country": "New Zealand",
      "city": "Christchurch",
      "lat": -43.532055,
      "lng": 172.63623,
      "deans": [
         "Nikolas Bielski"
      ],
      "social_media": {
         "facebook": "https://www.https://www.facebook.com/groups/279616792629749/"
      }
   },
   {
      "index": 356,
      "country": "Brazil",
      "city": "Aracaju",
      "lat": -10.947247,
      "lng": -37.073082,
      "deans": [
         "Angelo Menezes"
      ],
      "social_media": {
         "facebook": "https://www.https://www.facebook.com/groups/ajuschoolofai/"
      }
   },